[
  {
    "id": "6924",
    "iata": "OCA",
    "icao": "07FA",
    "name": "Ocean Reef Club Airport",
    "city": "Key Largo",
    "country": "US",
    "type": "medium_airport",
    "lat": 25.325399,
    "lon": -80.274803,
    "elevation": 8,
    "wikipedia": "https://en.wikipedia.org/wiki/Ocean_Reef_Club_Airport"
  },
  {
    "id": "12243",
    "iata": "WKK",
    "icao": "5A8",
    "name": "Aleknagik / New Airport",
    "city": "Aleknagik",
    "country": "US",
    "type": "medium_airport",
    "lat": 59.2826004028,
    "lon": -158.617996216,
    "elevation": 66,
    "wikipedia": "https://en.wikipedia.org/wiki/Aleknagik_Airport"
  },
  {
    "id": "336537",
    "iata": "BBQ",
    "icao": "TAPB",
    "name": "Burton-Nibbs International Airport",
    "city": "Codrington",
    "country": "AG",
    "type": "medium_airport",
    "lat": 17.621194,
    "lon": -61.798347,
    "elevation": 28,
    "wikipedia": "https://en.wikipedia.org/wiki/Burton%E2%80%93Nibbs_International_Airport"
  },
  {
    "id": "3",
    "iata": "HIR",
    "icao": "AGGH",
    "name": "Honiara International Airport",
    "city": "Honiara",
    "country": "SB",
    "type": "large_airport",
    "lat": -9.428,
    "lon": 160.054993,
    "elevation": 28,
    "wikipedia": "https://en.wikipedia.org/wiki/Honiara_International_Airport"
  },
  {
    "id": "4",
    "iata": "MUA",
    "icao": "AGGM",
    "name": "Munda Airport",
    "city": "Munda",
    "country": "SB",
    "type": "medium_airport",
    "lat": -8.32797,
    "lon": 157.263,
    "elevation": 10,
    "wikipedia": "https://en.wikipedia.org/wiki/Munda_Airport"
  },
  {
    "id": "8",
    "iata": "INU",
    "icao": "ANYN",
    "name": "Nauru International Airport",
    "city": "Yaren",
    "country": "NR",
    "type": "medium_airport",
    "lat": -0.547893,
    "lon": 166.919525,
    "elevation": 22,
    "wikipedia": "https://en.wikipedia.org/wiki/Nauru_International_Airport"
  },
  {
    "id": "601314",
    "iata": "WFR",
    "icao": "AT98",
    "name": "[Duplicate] Wolf's Fang Runway",
    "city": "Queen Maud Island",
    "country": "AQ",
    "type": "medium_airport",
    "lat": -71.5264,
    "lon": 8.799459,
    "elevation": 3707,
    "wikipedia": "https://en.wikipedia.org/wiki/Wolf%27s_Fang_Runway"
  },
  {
    "id": "314558",
    "iata": "AXF",
    "icao": "ZBAL",
    "name": "Alxa Left Banner Bayanhot Airport",
    "city": "Bayanhot",
    "country": "CN",
    "type": "medium_airport",
    "lat": 38.748317,
    "lon": 105.58416,
    "elevation": 4560,
    "wikipedia": "https://en.wikipedia.org/wiki/Alxa_Left_Banner_Bayanhot_Airport"
  },
  {
    "id": "35179",
    "iata": "VMU",
    "icao": "AYBA",
    "name": "Baimuru Airport",
    "city": "Baimuru",
    "country": "PG",
    "type": "medium_airport",
    "lat": -7.496955,
    "lon": 144.821756,
    "elevation": 27,
    "wikipedia": "https://en.wikipedia.org/wiki/Baimuru_Airport"
  },
  {
    "id": "53",
    "iata": "BUA",
    "icao": "AYBK",
    "name": "Buka Airport",
    "city": "Buka Island",
    "country": "PG",
    "type": "medium_airport",
    "lat": -5.422299,
    "lon": 154.672698,
    "elevation": 11,
    "wikipedia": "https://en.wikipedia.org/wiki/Buka_Airport"
  },
  {
    "id": "35180",
    "iata": "OPU",
    "icao": "AYBM",
    "name": "Balimo Airport",
    "city": "Balimo",
    "country": "PG",
    "type": "medium_airport",
    "lat": -8.05000019073,
    "lon": 142.932998657,
    "elevation": 51,
    "wikipedia": "https://en.wikipedia.org/wiki/Balimo_Airport"
  },
  {
    "id": "54",
    "iata": "CMU",
    "icao": "AYCH",
    "name": "Chimbu Airport",
    "city": "Kundiawa",
    "country": "PG",
    "type": "medium_airport",
    "lat": -6.024290084838867,
    "lon": 144.9709930419922,
    "elevation": 4974,
    "wikipedia": "https://en.wikipedia.org/wiki/Chimbu_Airport"
  },
  {
    "id": "55",
    "iata": "DAU",
    "icao": "AYDU",
    "name": "Daru Airport",
    "city": "Daru",
    "country": "PG",
    "type": "medium_airport",
    "lat": -9.08676,
    "lon": 143.207993,
    "elevation": 20,
    "wikipedia": "https://en.wikipedia.org/wiki/Daru_Airport"
  },
  {
    "id": "56",
    "iata": "GKA",
    "icao": "AYGA",
    "name": "Goroka Airport",
    "city": "Goronka",
    "country": "PG",
    "type": "medium_airport",
    "lat": -6.081689834590001,
    "lon": 145.391998291,
    "elevation": 5282,
    "wikipedia": "https://en.wikipedia.org/wiki/Goroka_Airport"
  },
  {
    "id": "57",
    "iata": "GUR",
    "icao": "AYGN",
    "name": "Gurney Airport",
    "city": "Gurney",
    "country": "PG",
    "type": "medium_airport",
    "lat": -10.3114995956,
    "lon": 150.333999634,
    "elevation": 88,
    "wikipedia": "https://en.wikipedia.org/wiki/Gurney_Airport"
  },
  {
    "id": "58",
    "iata": "PNP",
    "icao": "AYGR",
    "name": "Girua Airport",
    "city": "Popondetta",
    "country": "PG",
    "type": "medium_airport",
    "lat": -8.80453968048,
    "lon": 148.309005737,
    "elevation": 311,
    "wikipedia": "https://en.wikipedia.org/wiki/Girua_Airport"
  },
  {
    "id": "59",
    "iata": "HKN",
    "icao": "AYHK",
    "name": "Hoskins Airport",
    "city": "Kimbe",
    "country": "PG",
    "type": "medium_airport",
    "lat": -5.463846,
    "lon": 150.407327,
    "elevation": 66,
    "wikipedia": "https://en.wikipedia.org/wiki/Hoskins_Airport"
  },
  {
    "id": "60",
    "iata": "KMA",
    "icao": "AYKM",
    "name": "Kerema Airport",
    "city": "Kerema",
    "country": "PG",
    "type": "medium_airport",
    "lat": -7.96361017227,
    "lon": 145.770996094,
    "elevation": 10,
    "wikipedia": "https://en.wikipedia.org/wiki/Kerema_Airport"
  },
  {
    "id": "61",
    "iata": "KVG",
    "icao": "AYKV",
    "name": "Kavieng Airport",
    "city": "Kavieng",
    "country": "PG",
    "type": "medium_airport",
    "lat": -2.57940006256,
    "lon": 150.807998657,
    "elevation": 7,
    "wikipedia": "https://en.wikipedia.org/wiki/Kavieng_Airport"
  },
  {
    "id": "62",
    "iata": "MAG",
    "icao": "AYMD",
    "name": "Madang Airport",
    "city": "Madang",
    "country": "PG",
    "type": "medium_airport",
    "lat": -5.20707988739,
    "lon": 145.789001465,
    "elevation": 20,
    "wikipedia": "https://en.wikipedia.org/wiki/Madang_Airport"
  },
  {
    "id": "63",
    "iata": "HGU",
    "icao": "AYMH",
    "name": "Mount Hagen Kagamuga Airport",
    "city": "Mount Hagen",
    "country": "PG",
    "type": "medium_airport",
    "lat": -5.828212,
    "lon": 144.299412,
    "elevation": 5388,
    "wikipedia": "https://en.wikipedia.org/wiki/Mount_Hagen_Airport"
  },
  {
    "id": "64",
    "iata": "MDU",
    "icao": "AYMN",
    "name": "Mendi Airport",
    "city": "Mendi",
    "country": "PG",
    "type": "medium_airport",
    "lat": -6.14774,
    "lon": 143.656998,
    "elevation": 5680,
    "wikipedia": "https://en.wikipedia.org/wiki/Mendi_Airport"
  },
  {
    "id": "65",
    "iata": "MAS",
    "icao": "AYMO",
    "name": "Momote Airport",
    "city": "Manus Island",
    "country": "PG",
    "type": "medium_airport",
    "lat": -2.06189,
    "lon": 147.423996,
    "elevation": 12,
    "wikipedia": "https://en.wikipedia.org/wiki/Momote_Airport"
  },
  {
    "id": "66",
    "iata": "LAE",
    "icao": "AYNZ",
    "name": "Nadzab Tomodachi International Airport",
    "city": "Lae",
    "country": "PG",
    "type": "large_airport",
    "lat": -6.567995,
    "lon": 146.726544,
    "elevation": 239,
    "wikipedia": "https://en.wikipedia.org/wiki/Lae_Nadzab_Airport"
  },
  {
    "id": "67",
    "iata": "POM",
    "icao": "AYPY",
    "name": "Port Moresby Jacksons International Airport",
    "city": "Port Moresby",
    "country": "PG",
    "type": "large_airport",
    "lat": -9.443380355834961,
    "lon": 147.22000122070312,
    "elevation": 146,
    "wikipedia": "https://en.wikipedia.org/wiki/Jacksons_International_Airport"
  },
  {
    "id": "68",
    "iata": "RAB",
    "icao": "AYTK",
    "name": "Tokua Airport",
    "city": "Kokopo",
    "country": "PG",
    "type": "medium_airport",
    "lat": -4.34046,
    "lon": 152.380005,
    "elevation": 49,
    "wikipedia": "https://en.wikipedia.org/wiki/Rabaul_Airport"
  },
  {
    "id": "69",
    "iata": "VAI",
    "icao": "AYVN",
    "name": "Vanimo Airport",
    "city": "Vanimo",
    "country": "PG",
    "type": "medium_airport",
    "lat": -2.6926,
    "lon": 141.3028,
    "elevation": 10,
    "wikipedia": "https://en.wikipedia.org/wiki/Vanimo_Airport"
  },
  {
    "id": "70",
    "iata": "WBM",
    "icao": "AYWD",
    "name": "Wapenamanda Airport",
    "city": "Wapenamanda",
    "country": "PG",
    "type": "medium_airport",
    "lat": -5.635293,
    "lon": 143.892231,
    "elevation": 5889,
    "wikipedia": "https://en.wikipedia.org/wiki/Wapenamanda_Airport"
  },
  {
    "id": "71",
    "iata": "WWK",
    "icao": "AYWK",
    "name": "Wewak International Airport",
    "city": "Wewak",
    "country": "PG",
    "type": "medium_airport",
    "lat": -3.58383011818,
    "lon": 143.669006348,
    "elevation": 19,
    "wikipedia": "https://en.wikipedia.org/wiki/Wewak_International_Airport"
  },
  {
    "id": "44941",
    "iata": "ZXT",
    "icao": "UBTT",
    "name": "Zabrat Airport",
    "city": "Zabrat",
    "country": "AZ",
    "type": "medium_airport",
    "lat": 40.494884,
    "lon": 49.977065,
    "elevation": 36,
    "wikipedia": "https://en.wikipedia.org/wiki/Zabrat_Airport"
  },
  {
    "id": "27301",
    "iata": "BCW",
    "icao": "BCW",
    "name": "Benguera Island Airport",
    "city": "Benguera Island",
    "country": "MZ",
    "type": "medium_airport",
    "lat": -21.8533,
    "lon": 35.438301,
    "elevation": null,
    "wikipedia": "https://en.wikipedia.org/wiki/Benguera_Island_Airport"
  },
  {
    "id": "111",
    "iata": "JAM",
    "icao": "BG-JAM",
    "name": "Bezmer Air Base",
    "city": "Bezmer",
    "country": "BG",
    "type": "medium_airport",
    "lat": 42.454899,
    "lon": 26.3522,
    "elevation": 509,
    "wikipedia": "https://en.wikipedia.org/wiki/Bezmer_Airbase"
  },
  {
    "id": "31697",
    "iata": "JEG",
    "icao": "BGAA",
    "name": "Aasiaat Airport",
    "city": "Aasiaat",
    "country": "GL",
    "type": "medium_airport",
    "lat": 68.721802,
    "lon": -52.784698,
    "elevation": 74,
    "wikipedia": "https://en.wikipedia.org/wiki/Aasiaat_Airport"
  },
  {
    "id": "30839",
    "iata": "CNP",
    "icao": "BGCO",
    "name": "Neerlerit Inaat Airport",
    "city": "Neerlerit Inaat",
    "country": "GL",
    "type": "medium_airport",
    "lat": 70.743103,
    "lon": -22.650499,
    "elevation": 45,
    "wikipedia": "https://en.wikipedia.org/wiki/Nerlerit_Inaat_Airport"
  },
  {
    "id": "114",
    "iata": "GOH",
    "icao": "BGGH",
    "name": "Nuuk International Airport",
    "city": "Nuuk",
    "country": "GL",
    "type": "large_airport",
    "lat": 64.191066,
    "lon": -51.67914,
    "elevation": 283,
    "wikipedia": "https://en.wikipedia.org/wiki/Nuuk_Airport"
  },
  {
    "id": "31694",
    "iata": "JAV",
    "icao": "BGJN",
    "name": "Ilulissat Airport",
    "city": "Ilulissat",
    "country": "GL",
    "type": "medium_airport",
    "lat": 69.243202,
    "lon": -51.057098,
    "elevation": 95,
    "wikipedia": "https://en.wikipedia.org/wiki/Ilulissat_Airport"
  },
  {
    "id": "31786",
    "iata": "KUS",
    "icao": "BGKK",
    "name": "Kulusuk Airport",
    "city": "Kulusuk",
    "country": "GL",
    "type": "medium_airport",
    "lat": 65.573601,
    "lon": -37.1236,
    "elevation": 117,
    "wikipedia": "https://en.wikipedia.org/wiki/Kulusuk_Airport"
  },
  {
    "id": "32004",
    "iata": "NAQ",
    "icao": "BGQQ",
    "name": "Qaanaaq Airport",
    "city": "Qaanaaq",
    "country": "GL",
    "type": "medium_airport",
    "lat": 77.488602,
    "lon": -69.388702,
    "elevation": 51,
    "wikipedia": "https://en.wikipedia.org/wiki/Qaanaaq_Airport"
  },
  {
    "id": "115",
    "iata": "SFJ",
    "icao": "BGSF",
    "name": "Kangerlussuaq International Airport",
    "city": "Kangerlussuaq",
    "country": "GL",
    "type": "medium_airport",
    "lat": 67.010446,
    "lon": -50.715294,
    "elevation": 165,
    "wikipedia": "https://en.wikipedia.org/wiki/Kangerlussuaq_Airport"
  },
  {
    "id": "31700",
    "iata": "JHS",
    "icao": "BGSS",
    "name": "Sisimiut Airport",
    "city": "Sisimiut",
    "country": "GL",
    "type": "medium_airport",
    "lat": 66.951302,
    "lon": -53.729301,
    "elevation": 33,
    "wikipedia": "https://en.wikipedia.org/wiki/Sisimiut_Airport"
  },
  {
    "id": "116",
    "iata": "THU",
    "icao": "BGTL",
    "name": "Pituffik Space Base",
    "city": "Pituffik",
    "country": "GL",
    "type": "medium_airport",
    "lat": 76.53063,
    "lon": -68.700541,
    "elevation": 251,
    "wikipedia": "https://en.wikipedia.org/wiki/Pituffik_Space_Base"
  },
  {
    "id": "117",
    "iata": "AEY",
    "icao": "BIAR",
    "name": "Akureyri International Airport",
    "city": "Akureyri",
    "country": "IS",
    "type": "large_airport",
    "lat": 65.656573,
    "lon": -18.072018,
    "elevation": 6,
    "wikipedia": "https://en.wikipedia.org/wiki/Akureyri_Airport"
  },
  {
    "id": "118",
    "iata": "BIU",
    "icao": "BIBD",
    "name": "Bildudalur Airport",
    "city": "Bildudalur",
    "country": "IS",
    "type": "medium_airport",
    "lat": 65.641296,
    "lon": -23.5462,
    "elevation": 18,
    "wikipedia": "https://en.wikipedia.org/wiki/B%C3%ADldudalur_Airport"
  },
  {
    "id": "119",
    "iata": "EGS",
    "icao": "BIEG",
    "name": "Egilsstaðir Airport",
    "city": "Egilsstaðir",
    "country": "IS",
    "type": "medium_airport",
    "lat": 65.2833023071289,
    "lon": -14.401399612426758,
    "elevation": 76,
    "wikipedia": "https://en.wikipedia.org/wiki/Egilssta%C3%B0ir_Airport"
  },
  {
    "id": "31549",
    "iata": "GRY",
    "icao": "BIGR",
    "name": "Grímsey Airport",
    "city": "Grímsey/Sandvík",
    "country": "IS",
    "type": "medium_airport",
    "lat": 66.5458,
    "lon": -18.0173,
    "elevation": 66,
    "wikipedia": "https://en.wikipedia.org/wiki/Gr%C3%ADmsey_Airport"
  },
  {
    "id": "120",
    "iata": "HFN",
    "icao": "BIHN",
    "name": "Hornafjörður Airport",
    "city": "Höfn",
    "country": "IS",
    "type": "medium_airport",
    "lat": 64.295601,
    "lon": -15.2272,
    "elevation": 24,
    "wikipedia": "https://en.wikipedia.org/wiki/Hornafj%C3%B6r%C3%B0ur_Airport"
  },
  {
    "id": "121",
    "iata": "HZK",
    "icao": "BIHU",
    "name": "Húsavík Airport",
    "city": "Húsavík",
    "country": "IS",
    "type": "medium_airport",
    "lat": 65.952301,
    "lon": -17.426001,
    "elevation": 48,
    "wikipedia": "https://en.wikipedia.org/wiki/H%C3%BAsav%C3%ADk_Airport"
  },
  {
    "id": "122",
    "iata": "IFJ",
    "icao": "BIIS",
    "name": "Ísafjörður Airport",
    "city": "Ísafjörður",
    "country": "IS",
    "type": "medium_airport",
    "lat": 66.058098,
    "lon": -23.1353,
    "elevation": 8,
    "wikipedia": "https://en.wikipedia.org/wiki/%C3%8Dsafj%C3%B6r%C3%B0ur_Airport"
  },
  {
    "id": "123",
    "iata": "KEF",
    "icao": "BIKF",
    "name": "Keflavik International Airport",
    "city": "Reykjavík",
    "country": "IS",
    "type": "large_airport",
    "lat": 63.985001,
    "lon": -22.6056,
    "elevation": 171,
    "wikipedia": "https://en.wikipedia.org/wiki/Keflav%C3%ADk_International_Airport"
  },
  {
    "id": "125",
    "iata": "RKV",
    "icao": "BIRK",
    "name": "Reykjavík Domestic Airport",
    "city": "Reykjavík",
    "country": "IS",
    "type": "medium_airport",
    "lat": 64.128732,
    "lon": -21.93759,
    "elevation": 48,
    "wikipedia": "https://en.wikipedia.org/wiki/Reykjav%C3%ADk_Airport"
  },
  {
    "id": "31973",
    "iata": "MVA",
    "icao": "BIRL",
    "name": "Mývatn Airport",
    "city": "Myvatn",
    "country": "IS",
    "type": "medium_airport",
    "lat": 65.6558,
    "lon": -16.9181,
    "elevation": 1030,
    "wikipedia": "https://en.wikipedia.org/wiki/M%C3%BDvatn_Airport"
  },
  {
    "id": "126",
    "iata": "SIJ",
    "icao": "BISI",
    "name": "Siglufjörður Airport",
    "city": "Siglufjörður",
    "country": "IS",
    "type": "medium_airport",
    "lat": 66.137847,
    "lon": -18.908157,
    "elevation": 10,
    "wikipedia": "https://en.wikipedia.org/wiki/Siglufj%C3%B6r%C3%B0ur_Airport"
  },
  {
    "id": "128",
    "iata": "VEY",
    "icao": "BIVM",
    "name": "Vestmannaeyjar Airport",
    "city": "Vestmannaeyjar",
    "country": "IS",
    "type": "medium_airport",
    "lat": 63.42430114746094,
    "lon": -20.278900146484375,
    "elevation": 326,
    "wikipedia": "https://en.wikipedia.org/wiki/Vestmannaeyjar_Airport"
  },
  {
    "id": "32593",
    "iata": "VPN",
    "icao": "BIVO",
    "name": "Vopnafjörður Airport",
    "city": "Vopnafjörður",
    "country": "IS",
    "type": "medium_airport",
    "lat": 65.720596,
    "lon": -14.8506,
    "elevation": 16,
    "wikipedia": "https://en.wikipedia.org/wiki/Vopnafj%C3%B6r%C3%B0ur_Airport"
  },
  {
    "id": "4614",
    "iata": "PRN",
    "icao": "BKPR",
    "name": "Priština Adem Jashari International Airport",
    "city": "Prishtina",
    "country": "XK",
    "type": "large_airport",
    "lat": 42.5728,
    "lon": 21.035801,
    "elevation": 1789,
    "wikipedia": "https://en.wikipedia.org/wiki/Pristina_International_Airport"
  },
  {
    "id": "333222",
    "iata": "VDC",
    "icao": "SBVC",
    "name": "Glauber de Andrade Rocha Airport",
    "city": "Vitória da Conquista",
    "country": "BR",
    "type": "medium_airport",
    "lat": -14.907885,
    "lon": -40.914804,
    "elevation": 2940,
    "wikipedia": "https://en.wikipedia.org/wiki/Glauber_Rocha_Airport"
  },
  {
    "id": "353792",
    "iata": "BTZ",
    "icao": "VTSY",
    "name": "Betong International Airport",
    "city": "Betong",
    "country": "TH",
    "type": "medium_airport",
    "lat": 5.79,
    "lon": 101.15,
    "elevation": 785,
    "wikipedia": "https://en.wikipedia.org/wiki/Betong_Airport"
  },
  {
    "id": "34946",
    "iata": "TXC",
    "icao": "BY-0001",
    "name": "Orsha Airport - Balbasovo Air Base",
    "city": "Orsha",
    "country": "BY",
    "type": "medium_airport",
    "lat": 54.439999,
    "lon": 30.2967,
    "elevation": 620,
    "wikipedia": "https://en.wikipedia.org/wiki/Balbasovo"
  },
  {
    "id": "30861",
    "iata": "CUK",
    "icao": "BZ-CUK",
    "name": "Caye Caulker Airport",
    "city": "Caye Caulker",
    "country": "BZ",
    "type": "medium_airport",
    "lat": 17.735015,
    "lon": -88.032862,
    "elevation": 2,
    "wikipedia": "https://en.wikipedia.org/wiki/Caye_Caulker_Airport"
  },
  {
    "id": "30867",
    "iata": "CYC",
    "icao": "BZ-CYC",
    "name": "Caye Chapel Airport",
    "city": "Caye Chapel",
    "country": "BZ",
    "type": "medium_airport",
    "lat": 17.683792,
    "lon": -88.044985,
    "elevation": 3,
    "wikipedia": "https://en.wikipedia.org/wiki/Caye_Chapel_Airport"
  },
  {
    "id": "42209",
    "iata": "CZH",
    "icao": "BZ-CZH",
    "name": "Corozal Airport",
    "city": "Corozal",
    "country": "BZ",
    "type": "medium_airport",
    "lat": 18.3822,
    "lon": -88.411903,
    "elevation": 40,
    "wikipedia": "https://en.wikipedia.org/wiki/Corozal_Airport"
  },
  {
    "id": "42207",
    "iata": "DGA",
    "icao": "BZ-DGA",
    "name": "Dangriga Airport",
    "city": "Dangriga",
    "country": "BZ",
    "type": "medium_airport",
    "lat": 16.98251,
    "lon": -88.230988,
    "elevation": 10,
    "wikipedia": "https://en.wikipedia.org/wiki/Dangriga_Airport"
  },
  {
    "id": "42210",
    "iata": "SJX",
    "icao": "BZ-SJX",
    "name": "Sartaneja Airport",
    "city": "Sartaneja",
    "country": "BZ",
    "type": "medium_airport",
    "lat": 18.3561,
    "lon": -88.130798,
    "elevation": 3,
    "wikipedia": "https://en.wikipedia.org/wiki/Sartaneja_Airport"
  },
  {
    "id": "32370",
    "iata": "SPR",
    "icao": "BZ-SPR",
    "name": "John Greif II Airport",
    "city": "San Pedro",
    "country": "BZ",
    "type": "medium_airport",
    "lat": 17.9139,
    "lon": -87.9711,
    "elevation": 4,
    "wikipedia": "https://en.wikipedia.org/wiki/San_Pedro_Airport"
  },
  {
    "id": "42215",
    "iata": "TZA",
    "icao": "BZ-TZA",
    "name": "Sir Barry Bowen Municipal Airport",
    "city": "Belize City",
    "country": "BZ",
    "type": "medium_airport",
    "lat": 17.517239,
    "lon": -88.195775,
    "elevation": 8,
    "wikipedia": "https://en.wikipedia.org/wiki/Belize_City_Municipal_Airport"
  },
  {
    "id": "27300",
    "iata": "BZB",
    "icao": "BZB",
    "name": "Bazaruto Island Airport",
    "city": "Bazaruto Island",
    "country": "MZ",
    "type": "medium_airport",
    "lat": -21.5411,
    "lon": 35.4729,
    "elevation": null,
    "wikipedia": "https://en.wikipedia.org/wiki/Bazaruto_Island_Airport"
  },
  {
    "id": "624",
    "iata": "YAA",
    "icao": "CAJ4",
    "name": "Anahim Lake Airport",
    "city": "Anahim Lake",
    "country": "CA",
    "type": "medium_airport",
    "lat": 52.451501,
    "lon": -125.303776,
    "elevation": 3635,
    "wikipedia": "https://en.wikipedia.org/wiki/Anahim_Lake_Airport"
  },
  {
    "id": "643",
    "iata": "XQU",
    "icao": "CAT4",
    "name": "Qualicum Beach Airport",
    "city": "Qualicum Beach",
    "country": "CA",
    "type": "medium_airport",
    "lat": 49.337456,
    "lon": -124.393086,
    "elevation": 191,
    "wikipedia": "https://en.wikipedia.org/wiki/Qualicum_Beach_Airport"
  },
  {
    "id": "657",
    "iata": "YZA",
    "icao": "CAZ5",
    "name": "Cache Creek-Ashcroft Regional Airport",
    "city": "Cache Creek",
    "country": "CA",
    "type": "medium_airport",
    "lat": 50.775258,
    "lon": -121.321314,
    "elevation": 2034,
    "wikipedia": "https://en.wikipedia.org/wiki/Cache_Creek_Airport"
  },
  {
    "id": "664",
    "iata": "ZEL",
    "icao": "CBBC",
    "name": "Bella Bella (Campbell Island) Airport",
    "city": "Bella Bella",
    "country": "CA",
    "type": "medium_airport",
    "lat": 52.185001,
    "lon": -128.156994,
    "elevation": 141,
    "wikipedia": "https://en.wikipedia.org/wiki/Bella_Bella_(Campbell_Island)_Airport"
  },
  {
    "id": "323881",
    "iata": "BZX",
    "icao": "ZUBZ",
    "name": "Bazhong Enyang Airport",
    "city": "Bazhong",
    "country": "CN",
    "type": "medium_airport",
    "lat": 31.73842,
    "lon": 106.644872,
    "elevation": 1804,
    "wikipedia": "https://en.wikipedia.org/wiki/Bazhong_Enyang_Airport"
  },
  {
    "id": "44157",
    "iata": "HSC",
    "icao": "ZGSG",
    "name": "Shaoguan Danxia Airport",
    "city": "Shaoguan",
    "country": "CN",
    "type": "medium_airport",
    "lat": 24.9786,
    "lon": 113.420998,
    "elevation": 280,
    "wikipedia": "https://en.wikipedia.org/wiki/Shaoguan_Danxia_Airport"
  },
  {
    "id": "44159",
    "iata": "JGS",
    "icao": "ZSGS",
    "name": "Jinggangshan Airport",
    "city": "Ji'an",
    "country": "CN",
    "type": "medium_airport",
    "lat": 26.856899,
    "lon": 114.737,
    "elevation": 281,
    "wikipedia": "https://en.wikipedia.org/wiki/Ji%27an_Jinggangshan_Airport"
  },
  {
    "id": "44195",
    "iata": "HNG",
    "icao": "ZLHN",
    "name": "Hainanzhou Gonghe Airport",
    "city": "Hainan (Gonghe)",
    "country": "CN",
    "type": "medium_airport",
    "lat": 36.3367,
    "lon": 100.480003,
    "elevation": 10052,
    "wikipedia": "https://en.wikipedia.org/wiki/Gonghe_Qinghaihu_Airport"
  },
  {
    "id": "44232",
    "iata": "JNH",
    "icao": "ZSJX",
    "name": "Jiaxing Nanhu Airport",
    "city": "Xiuzhou, Hangzhou",
    "country": "CN",
    "type": "medium_airport",
    "lat": 30.698056,
    "lon": 120.663056,
    "elevation": 15,
    "wikipedia": "https://en.wikipedia.org/wiki/Jiaxing_Airport"
  },
  {
    "id": "348150",
    "iata": "WHN",
    "icao": "CN-0178",
    "name": "Wuhan Hannan Municipal Airport",
    "city": "Wuhan (Hannan)",
    "country": "CN",
    "type": "medium_airport",
    "lat": 30.25521,
    "lon": 114.062805,
    "elevation": 85,
    "wikipedia": "https://en.wikipedia.org/wiki/Hannan_Municipal_Airport"
  },
  {
    "id": "350882",
    "iata": "DDR",
    "icao": "ZUDR",
    "name": "Shigatse Tingri Airport",
    "city": "Xigazê (Dingri)",
    "country": "CN",
    "type": "medium_airport",
    "lat": 28.604567,
    "lon": 86.798,
    "elevation": 14108,
    "wikipedia": "https://en.wikipedia.org/wiki/Shigatse_Tingri_Airport"
  },
  {
    "id": "350883",
    "iata": "HQL",
    "icao": "ZWTK",
    "name": "Tashikuergan Hongqilafu Airport",
    "city": "Tashikuergan",
    "country": "CN",
    "type": "medium_airport",
    "lat": 37.661333,
    "lon": 75.288877,
    "elevation": 10499,
    "wikipedia": "https://en.wikipedia.org/wiki/Tashkurgan_Airport"
  },
  {
    "id": "350949",
    "iata": "JDE",
    "icao": "CN-0253",
    "name": "Jiande Qiandaohu General Airport",
    "city": "Hangzhou",
    "country": "CN",
    "type": "medium_airport",
    "lat": 29.360905,
    "lon": 119.180829,
    "elevation": 249,
    "wikipedia": null
  },
  {
    "id": "355511",
    "iata": "APJ",
    "icao": "ZUPL",
    "name": "Ali Pulan Airport",
    "city": "Burang Town",
    "country": "CN",
    "type": "medium_airport",
    "lat": 30.397898,
    "lon": 81.13317,
    "elevation": 13943,
    "wikipedia": "https://en.wikipedia.org/wiki/Ali_Pulan_Airport"
  },
  {
    "id": "525773",
    "iata": "ZAT",
    "icao": "ZPZT",
    "name": "Zhaotong Zhaoyang Airport （Not fully opened)",
    "city": "Zhaotong",
    "country": "CN",
    "type": "medium_airport",
    "lat": 27.205843,
    "lon": 103.691511,
    "elevation": null,
    "wikipedia": "https://en.wikipedia.org/wiki/Zhaotong_Zhaoyang_Airport"
  },
  {
    "id": "598595",
    "iata": "BFY",
    "icao": "ZSBA",
    "name": "Bengbu Tenghu Airport",
    "city": "Bengbu",
    "country": "CN",
    "type": "medium_airport",
    "lat": 33.166292,
    "lon": 117.058344,
    "elevation": null,
    "wikipedia": "https://en.wikipedia.org/wiki/Bengbu_Tenghu_Airport"
  },
  {
    "id": "1654",
    "iata": "YAG",
    "icao": "CYAG",
    "name": "Fort Frances Municipal Airport",
    "city": "Fort Frances",
    "country": "CA",
    "type": "medium_airport",
    "lat": 48.655749,
    "lon": -93.44349,
    "elevation": 1125,
    "wikipedia": "https://en.wikipedia.org/wiki/Fort_Frances_Municipal_Airport"
  },
  {
    "id": "1655",
    "iata": "YAH",
    "icao": "CYAH",
    "name": "La Grande-4 Airport",
    "city": "La Grande-4",
    "country": "CA",
    "type": "medium_airport",
    "lat": 53.754699707,
    "lon": -73.6753005981,
    "elevation": 1005,
    "wikipedia": "https://en.wikipedia.org/wiki/La_Grande-4_Airport"
  },
  {
    "id": "1657",
    "iata": "YAM",
    "icao": "CYAM",
    "name": "Sault Ste Marie Airport",
    "city": "Sault Ste Marie",
    "country": "CA",
    "type": "medium_airport",
    "lat": 46.483216,
    "lon": -84.508467,
    "elevation": 630,
    "wikipedia": "https://en.wikipedia.org/wiki/Sault_Ste._Marie_Airport"
  },
  {
    "id": "1658",
    "iata": "XKS",
    "icao": "CYAQ",
    "name": "Kasabonika Airport",
    "city": "Kasabonika",
    "country": "CA",
    "type": "medium_airport",
    "lat": 53.52470016479492,
    "lon": -88.6427993774414,
    "elevation": 672,
    "wikipedia": "https://en.wikipedia.org/wiki/Kasabonika_Airport"
  },
  {
    "id": "1665",
    "iata": "YAY",
    "icao": "CYAY",
    "name": "St. Anthony Airport",
    "city": "St. Anthony",
    "country": "CA",
    "type": "medium_airport",
    "lat": 51.391909,
    "lon": -56.08321,
    "elevation": 108,
    "wikipedia": "https://en.wikipedia.org/wiki/St._Anthony_Airport"
  },
  {
    "id": "1666",
    "iata": "YAZ",
    "icao": "CYAZ",
    "name": "Tofino / Long Beach Airport",
    "city": "Tofino",
    "country": "CA",
    "type": "medium_airport",
    "lat": 49.079833,
    "lon": -125.775583,
    "elevation": 80,
    "wikipedia": "https://en.wikipedia.org/wiki/Tofino_Airport"
  },
  {
    "id": "1669",
    "iata": "YBC",
    "icao": "CYBC",
    "name": "Baie-Comeau Airport",
    "city": "Baie-Comeau",
    "country": "CA",
    "type": "medium_airport",
    "lat": 49.1325,
    "lon": -68.204399,
    "elevation": 71,
    "wikipedia": "https://en.wikipedia.org/wiki/Baie-Comeau_Airport"
  },
  {
    "id": "1670",
    "iata": "QBC",
    "icao": "CYBD",
    "name": "Bella Coola Airport",
    "city": "Bella Coola",
    "country": "CA",
    "type": "medium_airport",
    "lat": 52.387501,
    "lon": -126.596001,
    "elevation": 117,
    "wikipedia": "https://en.wikipedia.org/wiki/Bella_Coola_Airport"
  },
  {
    "id": "1672",
    "iata": "YBY",
    "icao": "CYBF",
    "name": "Bonnyville Airport",
    "city": "Bonnyville",
    "country": "CA",
    "type": "medium_airport",
    "lat": 54.304199,
    "lon": -110.744003,
    "elevation": 1836,
    "wikipedia": "https://en.wikipedia.org/wiki/Bonnyville_Airport"
  },
  {
    "id": "1673",
    "iata": "YBG",
    "icao": "CYBG",
    "name": "Saguenay-Bagotville Airport",
    "city": "Saguenay",
    "country": "CA",
    "type": "medium_airport",
    "lat": 48.330123,
    "lon": -70.992012,
    "elevation": 522,
    "wikipedia": "https://en.wikipedia.org/wiki/CFB_Bagotville"
  },
  {
    "id": "1674",
    "iata": "YBK",
    "icao": "CYBK",
    "name": "Baker Lake Airport",
    "city": "Baker Lake",
    "country": "CA",
    "type": "medium_airport",
    "lat": 64.29889678960001,
    "lon": -96.077796936,
    "elevation": 59,
    "wikipedia": "https://en.wikipedia.org/wiki/Baker_Lake_Airport"
  },
  {
    "id": "1675",
    "iata": "YBL",
    "icao": "CYBL",
    "name": "Campbell River Airport",
    "city": "Campbell River",
    "country": "CA",
    "type": "medium_airport",
    "lat": 49.950802,
    "lon": -125.271004,
    "elevation": 346,
    "wikipedia": "https://en.wikipedia.org/wiki/Campbell_River_Airport"
  },
  {
    "id": "1678",
    "iata": "YBR",
    "icao": "CYBR",
    "name": "Brandon Municipal Airport",
    "city": "Brandon",
    "country": "CA",
    "type": "medium_airport",
    "lat": 49.91,
    "lon": -99.951897,
    "elevation": 1343,
    "wikipedia": "https://en.wikipedia.org/wiki/Brandon_Airport"
  },
  {
    "id": "1683",
    "iata": "YBX",
    "icao": "CYBX",
    "name": "Lourdes-de-Blanc-Sablon Airport",
    "city": "Blanc-Sablon",
    "country": "CA",
    "type": "medium_airport",
    "lat": 51.4436,
    "lon": -57.185299,
    "elevation": 121,
    "wikipedia": "https://en.wikipedia.org/wiki/Lourdes-de-Blanc-Sablon_Airport"
  },
  {
    "id": "1685",
    "iata": "YCB",
    "icao": "CYCB",
    "name": "Cambridge Bay Airport",
    "city": "Cambridge Bay",
    "country": "CA",
    "type": "medium_airport",
    "lat": 69.1081008911,
    "lon": -105.138000488,
    "elevation": 90,
    "wikipedia": "https://en.wikipedia.org/wiki/Cambridge_Bay_Airport"
  },
  {
    "id": "1686",
    "iata": "YCC",
    "icao": "CYCC",
    "name": "Cornwall Regional Airport",
    "city": "Cornwall",
    "country": "CA",
    "type": "medium_airport",
    "lat": 45.092637,
    "lon": -74.567724,
    "elevation": 175,
    "wikipedia": "https://en.wikipedia.org/wiki/Cornwall_Regional_Airport"
  },
  {
    "id": "1687",
    "iata": "YCD",
    "icao": "CYCD",
    "name": "Nanaimo Airport",
    "city": "Nanaimo",
    "country": "CA",
    "type": "medium_airport",
    "lat": 49.05497,
    "lon": -123.869863,
    "elevation": 92,
    "wikipedia": "https://en.wikipedia.org/wiki/Nanaimo_Airport"
  },
  {
    "id": "1688",
    "iata": "YCE",
    "icao": "CYCE",
    "name": "Centralia / James T. Field Memorial Aerodrome",
    "city": "Huron Park",
    "country": "CA",
    "type": "medium_airport",
    "lat": 43.285599,
    "lon": -81.508301,
    "elevation": 824,
    "wikipedia": "https://en.wikipedia.org/wiki/Centralia/Huron_Airpark"
  },
  {
    "id": "1689",
    "iata": "YCG",
    "icao": "CYCG",
    "name": "Castlegar/West Kootenay Regional Airport",
    "city": "Castlegar",
    "country": "CA",
    "type": "medium_airport",
    "lat": 49.296398,
    "lon": -117.632004,
    "elevation": 1624,
    "wikipedia": "https://en.wikipedia.org/wiki/Castlegar_Airport"
  },
  {
    "id": "1690",
    "iata": "YCH",
    "icao": "CYCH",
    "name": "Miramichi Airport",
    "city": "Miramichi",
    "country": "CA",
    "type": "medium_airport",
    "lat": 47.007801,
    "lon": -65.449203,
    "elevation": 108,
    "wikipedia": "https://en.wikipedia.org/wiki/Miramichi_Airport"
  },
  {
    "id": "1691",
    "iata": "YCL",
    "icao": "CYCL",
    "name": "Charlo Airport",
    "city": "Charlo",
    "country": "CA",
    "type": "medium_airport",
    "lat": 47.990799,
    "lon": -66.330299,
    "elevation": 132,
    "wikipedia": "https://en.wikipedia.org/wiki/Charlo_Airport"
  },
  {
    "id": "1692",
    "iata": "YCN",
    "icao": "CYCN",
    "name": "Cochrane Airport",
    "city": "Cochrane",
    "country": "CA",
    "type": "medium_airport",
    "lat": 49.10559844970703,
    "lon": -81.01360321044922,
    "elevation": 861,
    "wikipedia": "https://en.wikipedia.org/wiki/Cochrane_Airport"
  },
  {
    "id": "1695",
    "iata": "YCQ",
    "icao": "CYCQ",
    "name": "Chetwynd Airport",
    "city": "Chetwynd",
    "country": "CA",
    "type": "medium_airport",
    "lat": 55.687198638916016,
    "lon": -121.62699890136719,
    "elevation": 2000,
    "wikipedia": "https://en.wikipedia.org/wiki/Chetwynd_Airport"
  },
  {
    "id": "1703",
    "iata": "YDA",
    "icao": "CYDA",
    "name": "Dawson City Airport",
    "city": "Dawson City",
    "country": "CA",
    "type": "medium_airport",
    "lat": 64.04309844970703,
    "lon": -139.1280059814453,
    "elevation": 1215,
    "wikipedia": "https://en.wikipedia.org/wiki/Dawson_City_Airport"
  },
  {
    "id": "1704",
    "iata": "YDB",
    "icao": "CYDB",
    "name": "Burwash Airport",
    "city": "Burwash Landing",
    "country": "CA",
    "type": "medium_airport",
    "lat": 61.371101,
    "lon": -139.041,
    "elevation": 2647,
    "wikipedia": "https://en.wikipedia.org/wiki/Burwash_Airport"
  },
  {
    "id": "1706",
    "iata": "YDF",
    "icao": "CYDF",
    "name": "Deer Lake Airport",
    "city": "Deer Lake",
    "country": "CA",
    "type": "medium_airport",
    "lat": 49.208159,
    "lon": -57.396147,
    "elevation": 72,
    "wikipedia": "https://en.wikipedia.org/wiki/Deer_Lake_Airport_(Newfoundland)"
  },
  {
    "id": "1709",
    "iata": "XRR",
    "icao": "CYDM",
    "name": "Ross River Airport",
    "city": "Ross River",
    "country": "CA",
    "type": "medium_airport",
    "lat": 61.9706001282,
    "lon": -132.42300415,
    "elevation": 2314,
    "wikipedia": "https://en.wikipedia.org/wiki/Ross_River_Airport"
  },
  {
    "id": "1710",
    "iata": "YDN",
    "icao": "CYDN",
    "name": "Dauphin Barker Airport",
    "city": "Dauphin",
    "country": "CA",
    "type": "medium_airport",
    "lat": 51.1008,
    "lon": -100.052002,
    "elevation": 999,
    "wikipedia": "https://en.wikipedia.org/wiki/Dauphin_(Lt._Col_W.G._(Billy)_Barker_VC_Airport)"
  },
  {
    "id": "1711",
    "iata": "YDO",
    "icao": "CYDO",
    "name": "Dolbeau-Saint-Felicien Airport",
    "city": "Dolbeau-Saint-Felicien",
    "country": "CA",
    "type": "medium_airport",
    "lat": 48.7785,
    "lon": -72.375,
    "elevation": 372,
    "wikipedia": "https://en.wikipedia.org/wiki/Dolbeau-St-F%C3%A9licien_Airport"
  },
  {
    "id": "1713",
    "iata": "YDQ",
    "icao": "CYDQ",
    "name": "Dawson Creek Airport",
    "city": "Dawson Creek",
    "country": "CA",
    "type": "medium_airport",
    "lat": 55.741245,
    "lon": -120.183263,
    "elevation": 2148,
    "wikipedia": "https://en.wikipedia.org/wiki/Dawson_Creek_Airport"
  },
  {
    "id": "1717",
    "iata": "YEG",
    "icao": "CYEG",
    "name": "Edmonton International Airport",
    "city": "Edmonton",
    "country": "CA",
    "type": "large_airport",
    "lat": 53.3097,
    "lon": -113.580002,
    "elevation": 2373,
    "wikipedia": "https://en.wikipedia.org/wiki/Edmonton_International_Airport"
  },
  {
    "id": "1719",
    "iata": "YEL",
    "icao": "CYEL",
    "name": "Elliot Lake Municipal Airport",
    "city": "Elliot Lake",
    "country": "CA",
    "type": "medium_airport",
    "lat": 46.351398468,
    "lon": -82.5614013672,
    "elevation": 1087,
    "wikipedia": "https://en.wikipedia.org/wiki/Elliot_Lake_Municipal_Airport"
  },
  {
    "id": "1720",
    "iata": "YEM",
    "icao": "CYEM",
    "name": "Manitoulin East Municipal Airport",
    "city": "Sheguiandah",
    "country": "CA",
    "type": "medium_airport",
    "lat": 45.842435,
    "lon": -81.857595,
    "elevation": 869,
    "wikipedia": "https://en.wikipedia.org/wiki/Manitowaning/Manitoulin_East_Municipal_Airport"
  },
  {
    "id": "1721",
    "iata": "YEN",
    "icao": "CYEN",
    "name": "Estevan Airport",
    "city": "Estevan",
    "country": "CA",
    "type": "medium_airport",
    "lat": 49.2103004456,
    "lon": -102.966003418,
    "elevation": 1905,
    "wikipedia": "https://en.wikipedia.org/wiki/Estevan_Regional_Aerodrome"
  },
  {
    "id": "1724",
    "iata": "YET",
    "icao": "CYET",
    "name": "Edson Airport",
    "city": "Edson",
    "country": "CA",
    "type": "medium_airport",
    "lat": 53.578899383499994,
    "lon": -116.464996338,
    "elevation": 3043,
    "wikipedia": "https://en.wikipedia.org/wiki/Edson_Airport"
  },
  {
    "id": "1726",
    "iata": "YEV",
    "icao": "CYEV",
    "name": "Inuvik Mike Zubko Airport",
    "city": "Inuvik",
    "country": "CA",
    "type": "medium_airport",
    "lat": 68.30419921880001,
    "lon": -133.483001709,
    "elevation": 224,
    "wikipedia": "https://en.wikipedia.org/wiki/Inuvik_(Mike_Zubko)_Airport"
  },
  {
    "id": "1727",
    "iata": "YEY",
    "icao": "CYEY",
    "name": "Amos/Magny Airport",
    "city": "Amos",
    "country": "CA",
    "type": "medium_airport",
    "lat": 48.563903,
    "lon": -78.249702,
    "elevation": 1068,
    "wikipedia": "https://en.wikipedia.org/wiki/Amos/Magny_Airport"
  },
  {
    "id": "1729",
    "iata": "YFB",
    "icao": "CYFB",
    "name": "Iqaluit Airport",
    "city": "Iqaluit",
    "country": "CA",
    "type": "medium_airport",
    "lat": 63.756402,
    "lon": -68.555801,
    "elevation": 110,
    "wikipedia": "https://en.wikipedia.org/wiki/Iqaluit_Airport"
  },
  {
    "id": "1730",
    "iata": "YFC",
    "icao": "CYFC",
    "name": "Fredericton International Airport",
    "city": "Fredericton",
    "country": "CA",
    "type": "medium_airport",
    "lat": 45.868697,
    "lon": -66.529891,
    "elevation": 68,
    "wikipedia": "https://en.wikipedia.org/wiki/Greater_Fredericton_Airport"
  },
  {
    "id": "1732",
    "iata": "YFE",
    "icao": "CYFE",
    "name": "Forestville Airport",
    "city": "Forestville",
    "country": "CA",
    "type": "medium_airport",
    "lat": 48.74610137939453,
    "lon": -69.09719848632812,
    "elevation": 293,
    "wikipedia": "https://en.wikipedia.org/wiki/Forestville_Airport"
  },
  {
    "id": "1734",
    "iata": "YTM",
    "icao": "CYFJ",
    "name": "Mont-Tremblant International Airport",
    "city": "La Macaza",
    "country": "CA",
    "type": "medium_airport",
    "lat": 46.409401,
    "lon": -74.779999,
    "elevation": 827,
    "wikipedia": "https://en.wikipedia.org/wiki/Rivi%C3%A8re_Rouge/Mont-Tremblant_International_Inc_Airport"
  },
  {
    "id": "1736",
    "iata": "YFR",
    "icao": "CYFR",
    "name": "Fort Resolution Airport",
    "city": "Fort Resolution",
    "country": "CA",
    "type": "medium_airport",
    "lat": 61.1808013916,
    "lon": -113.690002441,
    "elevation": 526,
    "wikipedia": "https://en.wikipedia.org/wiki/Fort_Resolution_Airport"
  },
  {
    "id": "1737",
    "iata": "YFS",
    "icao": "CYFS",
    "name": "Fort Simpson Airport",
    "city": "Fort Simpson",
    "country": "CA",
    "type": "medium_airport",
    "lat": 61.76020050048828,
    "lon": -121.23699951171875,
    "elevation": 555,
    "wikipedia": "https://en.wikipedia.org/wiki/Fort_Simpson_Airport"
  },
  {
    "id": "1743",
    "iata": "YGK",
    "icao": "CYGK",
    "name": "Kingston Norman Rogers Airport",
    "city": "Kingston",
    "country": "CA",
    "type": "medium_airport",
    "lat": 44.2253,
    "lon": -76.596901,
    "elevation": 305,
    "wikipedia": "https://en.wikipedia.org/wiki/Kingston/Norman_Rogers_Airport"
  },
  {
    "id": "1744",
    "iata": "YGL",
    "icao": "CYGL",
    "name": "La Grande Rivière Airport",
    "city": "La Grande Rivière",
    "country": "CA",
    "type": "medium_airport",
    "lat": 53.625301361083984,
    "lon": -77.7042007446289,
    "elevation": 639,
    "wikipedia": "https://en.wikipedia.org/wiki/La_Grande_Rivi%C3%A8re_Airport"
  },
  {
    "id": "1745",
    "iata": "YGM",
    "icao": "CYGM",
    "name": "Gimli Industrial Park Airport",
    "city": "Gimli",
    "country": "CA",
    "type": "medium_airport",
    "lat": 50.62810134887695,
    "lon": -97.04329681396484,
    "elevation": 753,
    "wikipedia": "https://en.wikipedia.org/wiki/Gimli_Industrial_Park_Airport"
  },
  {
    "id": "1747",
    "iata": "YGP",
    "icao": "CYGP",
    "name": "Michel-Pouliot Gaspé Airport",
    "city": "Gaspé",
    "country": "CA",
    "type": "medium_airport",
    "lat": 48.774915,
    "lon": -64.481893,
    "elevation": 112,
    "wikipedia": "https://en.wikipedia.org/wiki/Gasp%C3%A9_Airport"
  },
  {
    "id": "1748",
    "iata": "YGQ",
    "icao": "CYGQ",
    "name": "Geraldton Greenstone Regional Airport",
    "city": "Geraldton",
    "country": "CA",
    "type": "medium_airport",
    "lat": 49.77830123901367,
    "lon": -86.93939971923828,
    "elevation": 1144,
    "wikipedia": "https://en.wikipedia.org/wiki/Geraldton_(Greenstone_Regional)_Airport"
  },
  {
    "id": "1749",
    "iata": "YGR",
    "icao": "CYGR",
    "name": "Îles-de-la-Madeleine Airport",
    "city": "Les Îles-de-la-Madeleine",
    "country": "CA",
    "type": "medium_airport",
    "lat": 47.425242,
    "lon": -61.778612,
    "elevation": 35,
    "wikipedia": "https://en.wikipedia.org/wiki/%C3%8Eles-de-la-Madeleine_Airport"
  },
  {
    "id": "1751",
    "iata": "YGV",
    "icao": "CYGV",
    "name": "Havre-Saint-Pierre Airport",
    "city": "Havre-Saint-Pierre",
    "country": "CA",
    "type": "medium_airport",
    "lat": 50.281898,
    "lon": -63.611401,
    "elevation": 124,
    "wikipedia": "https://en.wikipedia.org/wiki/Havre_St-Pierre_Airport"
  },
  {
    "id": "1752",
    "iata": "YGW",
    "icao": "CYGW",
    "name": "Kuujjuarapik Airport",
    "city": "Kuujjuarapik",
    "country": "CA",
    "type": "medium_airport",
    "lat": 55.281898498535156,
    "lon": -77.76529693603516,
    "elevation": 34,
    "wikipedia": "https://en.wikipedia.org/wiki/Kuujjuarapik_Airport"
  },
  {
    "id": "1757",
    "iata": "YHD",
    "icao": "CYHD",
    "name": "Dryden Regional Airport",
    "city": "Dryden",
    "country": "CA",
    "type": "medium_airport",
    "lat": 49.831699,
    "lon": -92.744202,
    "elevation": 1354,
    "wikipedia": "https://en.wikipedia.org/wiki/Dryden_Regional_Airport"
  },
  {
    "id": "1759",
    "iata": "YHF",
    "icao": "CYHF",
    "name": "Hearst René Fontaine Municipal Airport",
    "city": "Hearst",
    "country": "CA",
    "type": "medium_airport",
    "lat": 49.71419906616211,
    "lon": -83.68609619140625,
    "elevation": 827,
    "wikipedia": "https://en.wikipedia.org/wiki/Hearst_(Ren%C3%A9_Fontaine)_Municipal_Airport"
  },
  {
    "id": "1763",
    "iata": "YHM",
    "icao": "CYHM",
    "name": "John C. Munro Hamilton International Airport",
    "city": "Hamilton",
    "country": "CA",
    "type": "medium_airport",
    "lat": 43.17348,
    "lon": -79.931185,
    "elevation": 780,
    "wikipedia": "https://en.wikipedia.org/wiki/Hamilton/John_C._Munro_International_Airport"
  },
  {
    "id": "1764",
    "iata": "YHN",
    "icao": "CYHN",
    "name": "Hornepayne Municipal Airport",
    "city": "Hornepayne",
    "country": "CA",
    "type": "medium_airport",
    "lat": 49.19309997558594,
    "lon": -84.75890350341797,
    "elevation": 1099,
    "wikipedia": "https://en.wikipedia.org/wiki/Hornepayne_Municipal_Airport"
  },
  {
    "id": "1767",
    "iata": "YHT",
    "icao": "CYHT",
    "name": "Haines Junction Airport",
    "city": "Haines Junction",
    "country": "CA",
    "type": "medium_airport",
    "lat": 60.7892,
    "lon": -137.546005,
    "elevation": 2150,
    "wikipedia": "https://en.wikipedia.org/wiki/Haines_Junction_Airport"
  },
  {
    "id": "1768",
    "iata": "YHU",
    "icao": "CYHU",
    "name": "Montréal / Saint-Hubert Metropolitan Airport",
    "city": "Montréal",
    "country": "CA",
    "type": "medium_airport",
    "lat": 45.517502,
    "lon": -73.416901,
    "elevation": 90,
    "wikipedia": "https://en.wikipedia.org/wiki/Montr%C3%A9al/St-Hubert_Airport"
  },
  {
    "id": "1769",
    "iata": "YHY",
    "icao": "CYHY",
    "name": "Hay River / Merlyn Carter Airport",
    "city": "Hay River",
    "country": "CA",
    "type": "medium_airport",
    "lat": 60.8396987915,
    "lon": -115.782997131,
    "elevation": 541,
    "wikipedia": "https://en.wikipedia.org/wiki/Hay_River_Airport"
  },
  {
    "id": "1770",
    "iata": "YHZ",
    "icao": "CYHZ",
    "name": "Halifax / Stanfield International Airport",
    "city": "Halifax",
    "country": "CA",
    "type": "large_airport",
    "lat": 44.8807983398,
    "lon": -63.5085983276,
    "elevation": 477,
    "wikipedia": "https://en.wikipedia.org/wiki/Halifax_International_Airport"
  },
  {
    "id": "1771",
    "iata": "YIB",
    "icao": "CYIB",
    "name": "Atikokan Municipal Airport",
    "city": "Atikokan",
    "country": "CA",
    "type": "medium_airport",
    "lat": 48.773899,
    "lon": -91.638603,
    "elevation": 1408,
    "wikipedia": "https://en.wikipedia.org/wiki/Atikokan_Municipal_Airport"
  },
  {
    "id": "1772",
    "iata": "YDG",
    "icao": "CYID",
    "name": "Digby / Annapolis Regional Airport",
    "city": "Digby",
    "country": "CA",
    "type": "medium_airport",
    "lat": 44.5458450365,
    "lon": -65.7854247093,
    "elevation": 499,
    "wikipedia": "https://en.wikipedia.org/wiki/Digby_Airport"
  },
  {
    "id": "1773",
    "iata": "YIF",
    "icao": "CYIF",
    "name": "St Augustin Airport",
    "city": "St-Augustin",
    "country": "CA",
    "type": "medium_airport",
    "lat": 51.2117,
    "lon": -58.658298,
    "elevation": 20,
    "wikipedia": "https://en.wikipedia.org/wiki/St-Augustin_Airport"
  },
  {
    "id": "1776",
    "iata": "YIV",
    "icao": "CYIV",
    "name": "Island Lake Airport",
    "city": "Island Lake",
    "country": "CA",
    "type": "medium_airport",
    "lat": 53.857200622558594,
    "lon": -94.65360260009766,
    "elevation": 770,
    "wikipedia": "https://en.wikipedia.org/wiki/Island_Lake_Airport"
  },
  {
    "id": "1778",
    "iata": "YJF",
    "icao": "CYJF",
    "name": "Fort Liard Airport",
    "city": "Fort Liard",
    "country": "CA",
    "type": "medium_airport",
    "lat": 60.235801696799996,
    "lon": -123.46900177,
    "elevation": 708,
    "wikipedia": "https://en.wikipedia.org/wiki/Fort_Liard_Airport"
  },
  {
    "id": "1780",
    "iata": "YJN",
    "icao": "CYJN",
    "name": "St Jean Airport",
    "city": "St Jean",
    "country": "CA",
    "type": "medium_airport",
    "lat": 45.29439926147461,
    "lon": -73.28109741210938,
    "elevation": 136,
    "wikipedia": "https://en.wikipedia.org/wiki/St-Jean_Airport"
  },
  {
    "id": "1783",
    "iata": "YJT",
    "icao": "CYJT",
    "name": "Stephenville Dymond International Airport",
    "city": "Stephenville",
    "country": "CA",
    "type": "medium_airport",
    "lat": 48.54339,
    "lon": -58.552892,
    "elevation": 84,
    "wikipedia": "https://en.wikipedia.org/wiki/Stephenville_Airport"
  },
  {
    "id": "1784",
    "iata": "YKA",
    "icao": "CYKA",
    "name": "Kamloops John Moose Fulton Field Regional Airport",
    "city": "Kamloops",
    "country": "CA",
    "type": "medium_airport",
    "lat": 50.703038,
    "lon": -120.448641,
    "elevation": 1133,
    "wikipedia": "https://en.wikipedia.org/wiki/Kamloops_Airport"
  },
  {
    "id": "1787",
    "iata": "YKF",
    "icao": "CYKF",
    "name": "Region of Waterloo International Airport",
    "city": "Breslau",
    "country": "CA",
    "type": "medium_airport",
    "lat": 43.4608,
    "lon": -80.378601,
    "elevation": 1054,
    "wikipedia": "https://en.wikipedia.org/wiki/Region_of_Waterloo_International_Airport"
  },
  {
    "id": "1789",
    "iata": "YKJ",
    "icao": "CYKJ",
    "name": "Key Lake Airport",
    "city": "Key Lake",
    "country": "CA",
    "type": "medium_airport",
    "lat": 57.256099700927734,
    "lon": -105.61799621582031,
    "elevation": 1679,
    "wikipedia": "https://en.wikipedia.org/wiki/Key_Lake_Airport"
  },
  {
    "id": "1790",
    "iata": "YKL",
    "icao": "CYKL",
    "name": "Schefferville Airport",
    "city": "Schefferville",
    "country": "CA",
    "type": "medium_airport",
    "lat": 54.805301666259766,
    "lon": -66.8052978515625,
    "elevation": 1709,
    "wikipedia": "https://en.wikipedia.org/wiki/Schefferville_Airport"
  },
  {
    "id": "1340",
    "iata": "YKD",
    "icao": "CYKM",
    "name": "Kincardine Municipal Airport",
    "city": "Kincardine",
    "country": "CA",
    "type": "medium_airport",
    "lat": 44.201401,
    "lon": -81.606697,
    "elevation": 772,
    "wikipedia": "https://en.wikipedia.org/wiki/Kincardine_Airport"
  },
  {
    "id": "1793",
    "iata": "YKX",
    "icao": "CYKX",
    "name": "Kirkland Lake Airport",
    "city": "Kirkland Lake",
    "country": "CA",
    "type": "medium_airport",
    "lat": 48.21030044555664,
    "lon": -79.98139953613281,
    "elevation": 1157,
    "wikipedia": "https://en.wikipedia.org/wiki/Kirkland_Lake_Airport"
  },
  {
    "id": "1794",
    "iata": "YKY",
    "icao": "CYKY",
    "name": "Kindersley Airport",
    "city": "Kindersley",
    "country": "CA",
    "type": "medium_airport",
    "lat": 51.5175018311,
    "lon": -109.180999756,
    "elevation": 2277,
    "wikipedia": "https://en.wikipedia.org/wiki/Kindersley_Airport"
  },
  {
    "id": "1799",
    "iata": "YLD",
    "icao": "CYLD",
    "name": "Chapleau Airport",
    "city": "Chapleau",
    "country": "CA",
    "type": "medium_airport",
    "lat": 47.81999969482422,
    "lon": -83.3467025756836,
    "elevation": 1470,
    "wikipedia": "https://en.wikipedia.org/wiki/Chapleau_Airport"
  },
  {
    "id": "1801",
    "iata": "YLJ",
    "icao": "CYLJ",
    "name": "Meadow Lake Airport",
    "city": "Meadow Lake",
    "country": "CA",
    "type": "medium_airport",
    "lat": 54.125301361083984,
    "lon": -108.52300262451172,
    "elevation": 1576,
    "wikipedia": "https://en.wikipedia.org/wiki/Meadow_Lake_Airport"
  },
  {
    "id": "1803",
    "iata": "YLL",
    "icao": "CYLL",
    "name": "Lloydminster Airport",
    "city": "Lloydminster",
    "country": "CA",
    "type": "medium_airport",
    "lat": 53.3092,
    "lon": -110.072998,
    "elevation": 2193,
    "wikipedia": "https://en.wikipedia.org/wiki/Lloydminster_Airport"
  },
  {
    "id": "1805",
    "iata": "YLR",
    "icao": "CYLR",
    "name": "Leaf Rapids Airport",
    "city": "Leaf Rapids",
    "country": "CA",
    "type": "medium_airport",
    "lat": 56.513301849365234,
    "lon": -99.98529815673828,
    "elevation": 959,
    "wikipedia": "https://en.wikipedia.org/wiki/Leaf_Rapids_Airport"
  },
  {
    "id": "1293",
    "iata": "YLK",
    "icao": "CYLS",
    "name": "Barrie-Lake Simcoe Regional Airport",
    "city": "Barrie",
    "country": "CA",
    "type": "medium_airport",
    "lat": 44.485056,
    "lon": -79.554663,
    "elevation": 972,
    "wikipedia": "https://en.wikipedia.org/wiki/Barrie-Orillia_(Lake_Simcoe_Regional)_Airport"
  },
  {
    "id": "1806",
    "iata": "YLT",
    "icao": "CYLT",
    "name": "Alert Airport",
    "city": "Alert",
    "country": "CA",
    "type": "medium_airport",
    "lat": 82.517263,
    "lon": -62.283037,
    "elevation": 100,
    "wikipedia": "https://en.wikipedia.org/wiki/Alert_Airport"
  },
  {
    "id": "1808",
    "iata": "YLW",
    "icao": "CYLW",
    "name": "Kelowna International Airport",
    "city": "Kelowna",
    "country": "CA",
    "type": "large_airport",
    "lat": 49.9561,
    "lon": -119.377998,
    "elevation": 1421,
    "wikipedia": "https://en.wikipedia.org/wiki/Kelowna_International_Airport"
  },
  {
    "id": "1809",
    "iata": "YMA",
    "icao": "CYMA",
    "name": "Mayo Airport",
    "city": "Mayo",
    "country": "CA",
    "type": "medium_airport",
    "lat": 63.61640167236328,
    "lon": -135.8679962158203,
    "elevation": 1653,
    "wikipedia": "https://en.wikipedia.org/wiki/Mayo_Airport"
  },
  {
    "id": "1810",
    "iata": "YME",
    "icao": "CYME",
    "name": "Matane Airport",
    "city": "Matane",
    "country": "CA",
    "type": "medium_airport",
    "lat": 48.85689926147461,
    "lon": -67.45330047607422,
    "elevation": 102,
    "wikipedia": "https://en.wikipedia.org/wiki/Matane_Airport"
  },
  {
    "id": "1811",
    "iata": "YMG",
    "icao": "CYMG",
    "name": "Manitouwadge Airport",
    "city": "Manitouwadge",
    "country": "CA",
    "type": "medium_airport",
    "lat": 49.083900451660156,
    "lon": -85.86060333251953,
    "elevation": 1198,
    "wikipedia": "https://en.wikipedia.org/wiki/Manitouwadge_Airport"
  },
  {
    "id": "1813",
    "iata": "YMJ",
    "icao": "CYMJ",
    "name": "Moose Jaw Air Vice Marshal C. M. McEwen Airport",
    "city": "Moose Jaw",
    "country": "CA",
    "type": "medium_airport",
    "lat": 50.330299377441406,
    "lon": -105.55899810791016,
    "elevation": 1892,
    "wikipedia": "https://en.wikipedia.org/wiki/Moose_Jaw/Air_Vice_Marshal_C.M._McEwen_Airport"
  },
  {
    "id": "1814",
    "iata": "YML",
    "icao": "CYML",
    "name": "Charlevoix Airport",
    "city": "Charlevoix",
    "country": "CA",
    "type": "medium_airport",
    "lat": 47.59749984741211,
    "lon": -70.2238998413086,
    "elevation": 977,
    "wikipedia": "https://en.wikipedia.org/wiki/Charlevoix_Airport"
  },
  {
    "id": "1815",
    "iata": "YMM",
    "icao": "CYMM",
    "name": "Fort McMurray International Airport",
    "city": "Fort McMurray",
    "country": "CA",
    "type": "medium_airport",
    "lat": 56.653301,
    "lon": -111.222,
    "elevation": 1211,
    "wikipedia": "https://en.wikipedia.org/wiki/Fort_McMurray_Airport"
  },
  {
    "id": "1816",
    "iata": "YMO",
    "icao": "CYMO",
    "name": "Moosonee Airport",
    "city": "Moosonee",
    "country": "CA",
    "type": "medium_airport",
    "lat": 51.291099548339844,
    "lon": -80.60780334472656,
    "elevation": 30,
    "wikipedia": "https://en.wikipedia.org/wiki/Moosonee_Airport"
  },
  {
    "id": "1817",
    "iata": "YMT",
    "icao": "CYMT",
    "name": "Chapais Airport",
    "city": "Chibougamau",
    "country": "CA",
    "type": "medium_airport",
    "lat": 49.77190017700195,
    "lon": -74.5280990600586,
    "elevation": 1270,
    "wikipedia": "https://en.wikipedia.org/wiki/Chibougamau/Chapais_Airport"
  },
  {
    "id": "1820",
    "iata": "YMX",
    "icao": "CYMX",
    "name": "Montreal Mirabel International Airport",
    "city": "Montréal",
    "country": "CA",
    "type": "medium_airport",
    "lat": 45.679501,
    "lon": -74.038696,
    "elevation": 270,
    "wikipedia": "https://en.wikipedia.org/wiki/Montr%C3%A9al-Mirabel_International_Airport"
  },
  {
    "id": "1822",
    "iata": "YNA",
    "icao": "CYNA",
    "name": "Natashquan Airport",
    "city": "Natashquan",
    "country": "CA",
    "type": "medium_airport",
    "lat": 50.190114,
    "lon": -61.78898,
    "elevation": 39,
    "wikipedia": "https://en.wikipedia.org/wiki/Natashquan_Airport"
  },
  {
    "id": "1824",
    "iata": "YND",
    "icao": "CYND",
    "name": "Ottawa / Gatineau Airport",
    "city": "Gatineau",
    "country": "CA",
    "type": "medium_airport",
    "lat": 45.521702,
    "lon": -75.563599,
    "elevation": 211,
    "wikipedia": "https://en.wikipedia.org/wiki/Ottawa-Gatineau_Airport"
  },
  {
    "id": "1827",
    "iata": "YLY",
    "icao": "CYNJ",
    "name": "Langley Airport",
    "city": "Langley",
    "country": "CA",
    "type": "medium_airport",
    "lat": 49.1008,
    "lon": -122.630997,
    "elevation": 34,
    "wikipedia": "https://en.wikipedia.org/wiki/Langley_Regional_Airport"
  },
  {
    "id": "1828",
    "iata": "YNL",
    "icao": "CYNL",
    "name": "Points North Landing Airport",
    "city": "Points North Landing",
    "country": "CA",
    "type": "medium_airport",
    "lat": 58.27669906616211,
    "lon": -104.08200073242188,
    "elevation": 1605,
    "wikipedia": "https://en.wikipedia.org/wiki/Points_North_Landing_Airport"
  },
  {
    "id": "1829",
    "iata": "YNM",
    "icao": "CYNM",
    "name": "Matagami Airport",
    "city": "Matagami",
    "country": "CA",
    "type": "medium_airport",
    "lat": 49.76169967651367,
    "lon": -77.80280303955078,
    "elevation": 918,
    "wikipedia": "https://en.wikipedia.org/wiki/Matagami_Airport"
  },
  {
    "id": "1832",
    "iata": "YOA",
    "icao": "CYOA",
    "name": "Ekati Airport",
    "city": "Ekati",
    "country": "CA",
    "type": "medium_airport",
    "lat": 64.6988983154,
    "lon": -110.614997864,
    "elevation": 1536,
    "wikipedia": "https://en.wikipedia.org/wiki/Ekati_Airport"
  },
  {
    "id": "1834",
    "iata": "YOD",
    "icao": "CYOD",
    "name": "CFB Cold Lake",
    "city": "Cold Lake",
    "country": "CA",
    "type": "medium_airport",
    "lat": 54.404998779296875,
    "lon": -110.27899932861328,
    "elevation": 1775,
    "wikipedia": "https://en.wikipedia.org/wiki/CFB_Cold_Lake"
  },
  {
    "id": "1836",
    "iata": "YOJ",
    "icao": "CYOJ",
    "name": "High Level Airport",
    "city": "High Level",
    "country": "CA",
    "type": "medium_airport",
    "lat": 58.62139892578125,
    "lon": -117.16500091552734,
    "elevation": 1110,
    "wikipedia": "https://en.wikipedia.org/wiki/High_Level_Airport"
  },
  {
    "id": "1837",
    "iata": "YOO",
    "icao": "CYOO",
    "name": "Oshawa Executive Airport",
    "city": "Oshawa",
    "country": "CA",
    "type": "medium_airport",
    "lat": 43.922798,
    "lon": -78.894997,
    "elevation": 460,
    "wikipedia": "https://en.wikipedia.org/wiki/Oshawa_Airport"
  },
  {
    "id": "1838",
    "iata": "YOP",
    "icao": "CYOP",
    "name": "Rainbow Lake Airport",
    "city": "Rainbow Lake",
    "country": "CA",
    "type": "medium_airport",
    "lat": 58.491402,
    "lon": -119.407997,
    "elevation": 1759,
    "wikipedia": "https://en.wikipedia.org/wiki/Rainbow_Lake_Airport"
  },
  {
    "id": "1839",
    "iata": "YOS",
    "icao": "CYOS",
    "name": "Owen Sound / Billy Bishop Regional Airport",
    "city": "Owen Sound",
    "country": "CA",
    "type": "medium_airport",
    "lat": 44.5903015137,
    "lon": -80.8375015259,
    "elevation": 1007,
    "wikipedia": "https://en.wikipedia.org/wiki/Owen_Sound/Billy_Bishop_Regional_Airport"
  },
  {
    "id": "1840",
    "iata": "YOW",
    "icao": "CYOW",
    "name": "Ottawa Macdonald-Cartier International Airport",
    "city": "Ottawa",
    "country": "CA",
    "type": "large_airport",
    "lat": 45.322498,
    "lon": -75.669197,
    "elevation": 374,
    "wikipedia": "https://en.wikipedia.org/wiki/Ottawa_Macdonald%E2%80%93Cartier_International_Airport"
  },
  {
    "id": "1842",
    "iata": "YPA",
    "icao": "CYPA",
    "name": "Prince Albert Glass Field",
    "city": "Prince Albert",
    "country": "CA",
    "type": "medium_airport",
    "lat": 53.214199066199996,
    "lon": -105.672996521,
    "elevation": 1405,
    "wikipedia": "https://en.wikipedia.org/wiki/Prince_Albert_(Glass_Field)_Airport"
  },
  {
    "id": "1844",
    "iata": "YPS",
    "icao": "CYPD",
    "name": "Port Hawkesbury Airport",
    "city": "Port Hawkesbury",
    "country": "CA",
    "type": "medium_airport",
    "lat": 45.6567001343,
    "lon": -61.3680992126,
    "elevation": 377,
    "wikipedia": "https://en.wikipedia.org/wiki/Port_Hawkesbury_Airport"
  },
  {
    "id": "1845",
    "iata": "YPE",
    "icao": "CYPE",
    "name": "Peace River Airport",
    "city": "Peace River",
    "country": "CA",
    "type": "medium_airport",
    "lat": 56.226898,
    "lon": -117.446999,
    "elevation": 1873,
    "wikipedia": "https://en.wikipedia.org/wiki/Peace_River_Airport"
  },
  {
    "id": "1846",
    "iata": "YPG",
    "icao": "CYPG",
    "name": "Portage-la-Prairie / Southport Airport",
    "city": "Portage la Prairie",
    "country": "CA",
    "type": "medium_airport",
    "lat": 49.903099,
    "lon": -98.273817,
    "elevation": 885,
    "wikipedia": "https://en.wikipedia.org/wiki/Portage_La_Prairie/Southport_Airport"
  },
  {
    "id": "1849",
    "iata": "YPL",
    "icao": "CYPL",
    "name": "Pickle Lake Airport",
    "city": "Pickle Lake",
    "country": "CA",
    "type": "medium_airport",
    "lat": 51.4463996887207,
    "lon": -90.21420288085938,
    "elevation": 1267,
    "wikipedia": "https://en.wikipedia.org/wiki/Pickle_Lake_Airport"
  },
  {
    "id": "1851",
    "iata": "YPN",
    "icao": "CYPN",
    "name": "Port-Menier Airport",
    "city": "Port-Menier",
    "country": "CA",
    "type": "medium_airport",
    "lat": 49.836399,
    "lon": -64.288597,
    "elevation": 167,
    "wikipedia": "https://en.wikipedia.org/wiki/Port-Menier_Airport"
  },
  {
    "id": "1854",
    "iata": "YPQ",
    "icao": "CYPQ",
    "name": "Peterborough Regional Airport",
    "city": "Peterborough",
    "country": "CA",
    "type": "medium_airport",
    "lat": 44.232251,
    "lon": -78.362053,
    "elevation": 628,
    "wikipedia": "https://en.wikipedia.org/wiki/Peterborough_Airport"
  },
  {
    "id": "1855",
    "iata": "YPR",
    "icao": "CYPR",
    "name": "Prince Rupert Airport",
    "city": "Prince Rupert",
    "country": "CA",
    "type": "medium_airport",
    "lat": 54.286098480199996,
    "lon": -130.445007324,
    "elevation": 116,
    "wikipedia": "https://en.wikipedia.org/wiki/Prince_Rupert_Airport"
  },
  {
    "id": "1859",
    "iata": "YPW",
    "icao": "CYPW",
    "name": "Powell River Airport",
    "city": "Powell River",
    "country": "CA",
    "type": "medium_airport",
    "lat": 49.83420181274414,
    "lon": -124.5,
    "elevation": 425,
    "wikipedia": "https://en.wikipedia.org/wiki/Powell_River_Airport"
  },
  {
    "id": "1860",
    "iata": "YPX",
    "icao": "CYPX",
    "name": "Puvirnituq Airport",
    "city": "Puvirnituq",
    "country": "CA",
    "type": "medium_airport",
    "lat": 60.050598,
    "lon": -77.286903,
    "elevation": 74,
    "wikipedia": "https://en.wikipedia.org/wiki/Puvirnituq_Airport"
  },
  {
    "id": "1861",
    "iata": "YPY",
    "icao": "CYPY",
    "name": "Fort Chipewyan Airport",
    "city": "Fort Chipewyan",
    "country": "CA",
    "type": "medium_airport",
    "lat": 58.7672004699707,
    "lon": -111.11699676513672,
    "elevation": 761,
    "wikipedia": "https://en.wikipedia.org/wiki/Fort_Chipewyan_Airport"
  },
  {
    "id": "1862",
    "iata": "YPZ",
    "icao": "CYPZ",
    "name": "Burns Lake Airport",
    "city": "Burns Lake",
    "country": "CA",
    "type": "medium_airport",
    "lat": 54.3764,
    "lon": -125.950996,
    "elevation": 2343,
    "wikipedia": "https://en.wikipedia.org/wiki/Burns_Lake_Airport"
  },
  {
    "id": "1863",
    "iata": "YQA",
    "icao": "CYQA",
    "name": "Muskoka Airport",
    "city": "Gravenhurst",
    "country": "CA",
    "type": "medium_airport",
    "lat": 44.975376,
    "lon": -79.306546,
    "elevation": 925,
    "wikipedia": "https://en.wikipedia.org/wiki/Muskoka_Airport"
  },
  {
    "id": "1864",
    "iata": "YQB",
    "icao": "CYQB",
    "name": "Quebec Jean Lesage International Airport",
    "city": "Quebec",
    "country": "CA",
    "type": "large_airport",
    "lat": 46.7911,
    "lon": -71.393303,
    "elevation": 244,
    "wikipedia": "https://en.wikipedia.org/wiki/Qu%C3%A9bec/Jean_Lesage_International_Airport"
  },
  {
    "id": "1865",
    "iata": "YQD",
    "icao": "CYQD",
    "name": "The Pas Airport",
    "city": "The Pas",
    "country": "CA",
    "type": "medium_airport",
    "lat": 53.97140121459961,
    "lon": -101.09100341796875,
    "elevation": 887,
    "wikipedia": "https://en.wikipedia.org/wiki/The_Pas_Airport"
  },
  {
    "id": "1866",
    "iata": "YQF",
    "icao": "CYQF",
    "name": "Red Deer Regional Airport",
    "city": "Springbrook",
    "country": "CA",
    "type": "medium_airport",
    "lat": 52.182201,
    "lon": -113.893997,
    "elevation": 2968,
    "wikipedia": "https://en.wikipedia.org/wiki/Red_Deer_Regional_Airport"
  },
  {
    "id": "1867",
    "iata": "YQG",
    "icao": "CYQG",
    "name": "Windsor International Airport",
    "city": "Windsor",
    "country": "CA",
    "type": "medium_airport",
    "lat": 42.2756,
    "lon": -82.955597,
    "elevation": 622,
    "wikipedia": "https://en.wikipedia.org/wiki/Windsor_Airport"
  },
  {
    "id": "1868",
    "iata": "YQH",
    "icao": "CYQH",
    "name": "Watson Lake Airport",
    "city": "Watson Lake",
    "country": "CA",
    "type": "medium_airport",
    "lat": 60.116839,
    "lon": -128.821993,
    "elevation": 2255,
    "wikipedia": "https://en.wikipedia.org/wiki/Watson_Lake_Airport"
  },
  {
    "id": "1869",
    "iata": "YQI",
    "icao": "CYQI",
    "name": "Yarmouth Airport",
    "city": "Yarmouth",
    "country": "CA",
    "type": "medium_airport",
    "lat": 43.826900482177734,
    "lon": -66.08809661865234,
    "elevation": 141,
    "wikipedia": "https://en.wikipedia.org/wiki/Yarmouth_Airport"
  },
  {
    "id": "1870",
    "iata": "YQK",
    "icao": "CYQK",
    "name": "Kenora Airport",
    "city": "Kenora",
    "country": "CA",
    "type": "medium_airport",
    "lat": 49.788299560546875,
    "lon": -94.36309814453125,
    "elevation": 1332,
    "wikipedia": "https://en.wikipedia.org/wiki/Kenora_Airport"
  },
  {
    "id": "1871",
    "iata": "YQL",
    "icao": "CYQL",
    "name": "Lethbridge County Airport",
    "city": "Lethbridge",
    "country": "CA",
    "type": "medium_airport",
    "lat": 49.6302986145,
    "lon": -112.800003052,
    "elevation": 3048,
    "wikipedia": "https://en.wikipedia.org/wiki/Lethbridge_County_Airport"
  },
  {
    "id": "1872",
    "iata": "YQM",
    "icao": "CYQM",
    "name": "Greater Moncton Roméo LeBlanc International Airport",
    "city": "Moncton",
    "country": "CA",
    "type": "medium_airport",
    "lat": 46.113189,
    "lon": -64.67719,
    "elevation": 232,
    "wikipedia": "https://en.wikipedia.org/wiki/Greater_Moncton_International_Airport"
  },
  {
    "id": "1873",
    "iata": "YQN",
    "icao": "CYQN",
    "name": "Nakina Airport",
    "city": "Nakina",
    "country": "CA",
    "type": "medium_airport",
    "lat": 50.18280029296875,
    "lon": -86.69640350341797,
    "elevation": 1057,
    "wikipedia": "https://en.wikipedia.org/wiki/Nakina_Airport"
  },
  {
    "id": "1874",
    "iata": "YQQ",
    "icao": "CYQQ",
    "name": "Comox Valley International Airport / CFB Comox",
    "city": "Comox",
    "country": "CA",
    "type": "medium_airport",
    "lat": 49.7108,
    "lon": -124.887001,
    "elevation": 84,
    "wikipedia": "https://en.wikipedia.org/wiki/CFB_Comox"
  },
  {
    "id": "1875",
    "iata": "YQR",
    "icao": "CYQR",
    "name": "Regina International Airport",
    "city": "Regina",
    "country": "CA",
    "type": "medium_airport",
    "lat": 50.431938,
    "lon": -104.660906,
    "elevation": 1894,
    "wikipedia": "https://en.wikipedia.org/wiki/Regina_International_Airport"
  },
  {
    "id": "1876",
    "iata": "YQS",
    "icao": "CYQS",
    "name": "St Thomas Municipal Airport",
    "city": "St Thomas",
    "country": "CA",
    "type": "medium_airport",
    "lat": 42.77000045776367,
    "lon": -81.11080169677734,
    "elevation": 778,
    "wikipedia": "https://en.wikipedia.org/wiki/St._Thomas_Airport"
  },
  {
    "id": "1877",
    "iata": "YQT",
    "icao": "CYQT",
    "name": "Thunder Bay International Airport",
    "city": "Thunder Bay",
    "country": "CA",
    "type": "medium_airport",
    "lat": 48.371899,
    "lon": -89.323898,
    "elevation": 653,
    "wikipedia": "https://en.wikipedia.org/wiki/Thunder_Bay_International_Airport"
  },
  {
    "id": "1878",
    "iata": "YQU",
    "icao": "CYQU",
    "name": "Grande Prairie Airport",
    "city": "Grande Prairie",
    "country": "CA",
    "type": "medium_airport",
    "lat": 55.1796989441,
    "lon": -118.885002136,
    "elevation": 2195,
    "wikipedia": "https://en.wikipedia.org/wiki/Grande_Prairie_Airport"
  },
  {
    "id": "1879",
    "iata": "YQV",
    "icao": "CYQV",
    "name": "Yorkton Municipal Airport",
    "city": "Yorkton",
    "country": "CA",
    "type": "medium_airport",
    "lat": 51.264702,
    "lon": -102.461998,
    "elevation": 1635,
    "wikipedia": "https://en.wikipedia.org/wiki/Yorkton_Municipal_Airport"
  },
  {
    "id": "1880",
    "iata": "YQW",
    "icao": "CYQW",
    "name": "North Battleford Airport",
    "city": "North Battleford",
    "country": "CA",
    "type": "medium_airport",
    "lat": 52.769409,
    "lon": -108.243742,
    "elevation": 1799,
    "wikipedia": "https://en.wikipedia.org/wiki/North_Battleford_(Cameron_McIntosh)_Airport"
  },
  {
    "id": "1881",
    "iata": "YQX",
    "icao": "CYQX",
    "name": "Gander International Airport",
    "city": "Gander",
    "country": "CA",
    "type": "medium_airport",
    "lat": 48.936258,
    "lon": -54.567719,
    "elevation": 496,
    "wikipedia": "https://en.wikipedia.org/wiki/Gander_International_Airport"
  },
  {
    "id": "1882",
    "iata": "YQY",
    "icao": "CYQY",
    "name": "Sydney / J.A. Douglas McCurdy Airport",
    "city": "Sydney",
    "country": "CA",
    "type": "medium_airport",
    "lat": 46.161072,
    "lon": -60.049759,
    "elevation": 203,
    "wikipedia": "https://en.wikipedia.org/wiki/Sydney/J.A._Douglas_McCurdy_Airport"
  },
  {
    "id": "1883",
    "iata": "YQZ",
    "icao": "CYQZ",
    "name": "Quesnel Airport",
    "city": "Quesnel",
    "country": "CA",
    "type": "medium_airport",
    "lat": 53.026100158691406,
    "lon": -122.51000213623047,
    "elevation": 1789,
    "wikipedia": "https://en.wikipedia.org/wiki/Quesnel_Airport"
  },
  {
    "id": "1885",
    "iata": "YRB",
    "icao": "CYRB",
    "name": "Resolute Bay Airport",
    "city": "Resolute Bay",
    "country": "CA",
    "type": "medium_airport",
    "lat": 74.7169036865,
    "lon": -94.9693984985,
    "elevation": 215,
    "wikipedia": "https://en.wikipedia.org/wiki/Resolute_Bay_Airport"
  },
  {
    "id": "1887",
    "iata": "YRI",
    "icao": "CYRI",
    "name": "Rivière-du-Loup Airport",
    "city": "Rivière-du-Loup",
    "country": "CA",
    "type": "medium_airport",
    "lat": 47.764400482177734,
    "lon": -69.58470153808594,
    "elevation": 427,
    "wikipedia": "https://en.wikipedia.org/wiki/Rivi%C3%A8re-du-Loup_Airport"
  },
  {
    "id": "1888",
    "iata": "YRJ",
    "icao": "CYRJ",
    "name": "Roberval Airport",
    "city": "Roberval",
    "country": "CA",
    "type": "medium_airport",
    "lat": 48.519665,
    "lon": -72.265735,
    "elevation": 586,
    "wikipedia": "https://en.wikipedia.org/wiki/Roberval_Airport"
  },
  {
    "id": "1889",
    "iata": "YRL",
    "icao": "CYRL",
    "name": "Red Lake Airport",
    "city": "Red Lake",
    "country": "CA",
    "type": "medium_airport",
    "lat": 51.066898345947266,
    "lon": -93.79309844970703,
    "elevation": 1265,
    "wikipedia": "https://en.wikipedia.org/wiki/Red_Lake_Airport"
  },
  {
    "id": "1891",
    "iata": "YRO",
    "icao": "CYRO",
    "name": "Ottawa / Rockcliffe Airport",
    "city": "Ottawa",
    "country": "CA",
    "type": "medium_airport",
    "lat": 45.460496,
    "lon": -75.644001,
    "elevation": 188,
    "wikipedia": "https://en.wikipedia.org/wiki/Ottawa/Rockcliffe_Airport"
  },
  {
    "id": "1893",
    "iata": "YRQ",
    "icao": "CYRQ",
    "name": "Trois-Rivières Airport",
    "city": "Trois-Rivières",
    "country": "CA",
    "type": "medium_airport",
    "lat": 46.35279846191406,
    "lon": -72.67939758300781,
    "elevation": 199,
    "wikipedia": "https://en.wikipedia.org/wiki/Trois-Rivi%C3%A8res_Airport"
  },
  {
    "id": "1895",
    "iata": "YRT",
    "icao": "CYRT",
    "name": "Rankin Inlet Airport",
    "city": "Rankin Inlet",
    "country": "CA",
    "type": "medium_airport",
    "lat": 62.8114013672,
    "lon": -92.1157989502,
    "elevation": 94,
    "wikipedia": "https://en.wikipedia.org/wiki/Rankin_Inlet_Airport"
  },
  {
    "id": "1896",
    "iata": "YRV",
    "icao": "CYRV",
    "name": "Revelstoke Airport",
    "city": "Revelstoke",
    "country": "CA",
    "type": "medium_airport",
    "lat": 50.962245,
    "lon": -118.184258,
    "elevation": 1459,
    "wikipedia": "https://en.wikipedia.org/wiki/Revelstoke_Airport"
  },
  {
    "id": "1897",
    "iata": "YSB",
    "icao": "CYSB",
    "name": "Sudbury Airport",
    "city": "Sudbury",
    "country": "CA",
    "type": "medium_airport",
    "lat": 46.625,
    "lon": -80.79889678955078,
    "elevation": 1141,
    "wikipedia": "https://en.wikipedia.org/wiki/Sudbury_Airport"
  },
  {
    "id": "1898",
    "iata": "YSC",
    "icao": "CYSC",
    "name": "Sherbrooke Airport",
    "city": "Sherbrooke",
    "country": "CA",
    "type": "medium_airport",
    "lat": 45.438599,
    "lon": -71.691399,
    "elevation": 792,
    "wikipedia": "https://en.wikipedia.org/wiki/Sherbrooke_Airport"
  },
  {
    "id": "1901",
    "iata": "YSF",
    "icao": "CYSF",
    "name": "Stony Rapids Airport",
    "city": "Stony Rapids",
    "country": "CA",
    "type": "medium_airport",
    "lat": 59.250301361083984,
    "lon": -105.84100341796875,
    "elevation": 805,
    "wikipedia": "https://en.wikipedia.org/wiki/Stony_Rapids_Airport"
  },
  {
    "id": "1903",
    "iata": "YSH",
    "icao": "CYSH",
    "name": "Smiths Falls-Montague (Russ Beach) Airport",
    "city": "Smiths Falls",
    "country": "CA",
    "type": "medium_airport",
    "lat": 44.945801,
    "lon": -75.940598,
    "elevation": 416,
    "wikipedia": "https://en.wikipedia.org/wiki/Smiths_Falls-Montague_Airport"
  },
  {
    "id": "1904",
    "iata": "YSJ",
    "icao": "CYSJ",
    "name": "Saint John Airport",
    "city": "Saint John",
    "country": "CA",
    "type": "medium_airport",
    "lat": 45.31610107421875,
    "lon": -65.89029693603516,
    "elevation": 357,
    "wikipedia": "https://en.wikipedia.org/wiki/Saint_John_Airport"
  },
  {
    "id": "1906",
    "iata": "YSL",
    "icao": "CYSL",
    "name": "Saint-Léonard Airport",
    "city": "Saint-Léonard",
    "country": "CA",
    "type": "medium_airport",
    "lat": 47.157097,
    "lon": -67.836242,
    "elevation": 793,
    "wikipedia": "https://en.wikipedia.org/wiki/St._Leonard_Airport"
  },
  {
    "id": "1907",
    "iata": "YSM",
    "icao": "CYSM",
    "name": "Fort Smith Airport",
    "city": "Fort Smith",
    "country": "CA",
    "type": "medium_airport",
    "lat": 60.020302,
    "lon": -111.961998,
    "elevation": 671,
    "wikipedia": "https://en.wikipedia.org/wiki/Fort_Smith_Airport"
  },
  {
    "id": "1908",
    "iata": "YCM",
    "icao": "CYSN",
    "name": "Niagara District Airport",
    "city": "Niagara-on-the-Lake",
    "country": "CA",
    "type": "medium_airport",
    "lat": 43.191598,
    "lon": -79.171686,
    "elevation": 321,
    "wikipedia": "https://en.wikipedia.org/wiki/St._Catharines/Niagara_District_Airport"
  },
  {
    "id": "1909",
    "iata": "YSP",
    "icao": "CYSP",
    "name": "Marathon Airport",
    "city": "Marathon",
    "country": "CA",
    "type": "medium_airport",
    "lat": 48.75529861450195,
    "lon": -86.34439849853516,
    "elevation": 1035,
    "wikipedia": "https://en.wikipedia.org/wiki/Marathon_Airport_(Canada)"
  },
  {
    "id": "1913",
    "iata": "YSU",
    "icao": "CYSU",
    "name": "Summerside Airport",
    "city": "Slemon Park",
    "country": "CA",
    "type": "medium_airport",
    "lat": 46.440601,
    "lon": -63.833599,
    "elevation": 56,
    "wikipedia": "https://en.wikipedia.org/wiki/Summerside_Airport"
  },
  {
    "id": "1917",
    "iata": "YTA",
    "icao": "CYTA",
    "name": "Pembroke Airport",
    "city": "Pembroke",
    "country": "CA",
    "type": "medium_airport",
    "lat": 45.86439895629883,
    "lon": -77.25170135498047,
    "elevation": 529,
    "wikipedia": "https://en.wikipedia.org/wiki/Pembroke_Airport"
  },
  {
    "id": "1919",
    "iata": "YTF",
    "icao": "CYTF",
    "name": "Alma Airport",
    "city": "Alma",
    "country": "CA",
    "type": "medium_airport",
    "lat": 48.5089,
    "lon": -71.641899,
    "elevation": 445,
    "wikipedia": "https://en.wikipedia.org/wiki/Alma_Airport"
  },
  {
    "id": "1920",
    "iata": "YTH",
    "icao": "CYTH",
    "name": "Thompson Airport",
    "city": "Thompson",
    "country": "CA",
    "type": "medium_airport",
    "lat": 55.80110168457031,
    "lon": -97.86419677734375,
    "elevation": 729,
    "wikipedia": "https://en.wikipedia.org/wiki/Thompson_Airport"
  },
  {
    "id": "1924",
    "iata": "YTR",
    "icao": "CYTR",
    "name": "CFB Trenton",
    "city": "Trenton",
    "country": "CA",
    "type": "medium_airport",
    "lat": 44.118900299072266,
    "lon": -77.5280990600586,
    "elevation": 283,
    "wikipedia": "https://en.wikipedia.org/wiki/CFB_Trenton"
  },
  {
    "id": "1925",
    "iata": "YTS",
    "icao": "CYTS",
    "name": "Timmins/Victor M. Power",
    "city": "Timmins",
    "country": "CA",
    "type": "medium_airport",
    "lat": 48.569698333699996,
    "lon": -81.376701355,
    "elevation": 967,
    "wikipedia": "https://en.wikipedia.org/wiki/Timmins_Airport"
  },
  {
    "id": "1926",
    "iata": "YTZ",
    "icao": "CYTZ",
    "name": "Billy Bishop Toronto City Airport",
    "city": "Toronto",
    "country": "CA",
    "type": "medium_airport",
    "lat": 43.627852,
    "lon": -79.39553,
    "elevation": 252,
    "wikipedia": "https://en.wikipedia.org/wiki/Billy_Bishop_Toronto_City_Airport"
  },
  {
    "id": "1928",
    "iata": "YUL",
    "icao": "CYUL",
    "name": "Montreal / Pierre Elliott Trudeau International Airport",
    "city": "Montréal",
    "country": "CA",
    "type": "large_airport",
    "lat": 45.467837,
    "lon": -73.742294,
    "elevation": 118,
    "wikipedia": "https://en.wikipedia.org/wiki/Montréal–Trudeau_International_Airport"
  },
  {
    "id": "1930",
    "iata": "YUX",
    "icao": "CYUX",
    "name": "Hall Beach Airport",
    "city": "Sanirajak",
    "country": "CA",
    "type": "medium_airport",
    "lat": 68.7761,
    "lon": -81.2425,
    "elevation": 30,
    "wikipedia": "https://en.wikipedia.org/wiki/Hall_Beach_Airport"
  },
  {
    "id": "1931",
    "iata": "YUY",
    "icao": "CYUY",
    "name": "Rouyn Noranda Airport",
    "city": "Rouyn-Noranda",
    "country": "CA",
    "type": "medium_airport",
    "lat": 48.20610046386719,
    "lon": -78.83560180664062,
    "elevation": 988,
    "wikipedia": "https://en.wikipedia.org/wiki/Rouyn-Noranda_Airport"
  },
  {
    "id": "1932",
    "iata": "YVB",
    "icao": "CYVB",
    "name": "Bonaventure Airport",
    "city": "Bonaventure",
    "country": "CA",
    "type": "medium_airport",
    "lat": 48.071098,
    "lon": -65.460297,
    "elevation": 123,
    "wikipedia": "https://en.wikipedia.org/wiki/Bonaventure_Airport"
  },
  {
    "id": "1933",
    "iata": "YVC",
    "icao": "CYVC",
    "name": "La Ronge Airport",
    "city": "La Ronge",
    "country": "CA",
    "type": "medium_airport",
    "lat": 55.151401519800004,
    "lon": -105.262001038,
    "elevation": 1242,
    "wikipedia": "https://en.wikipedia.org/wiki/La_Ronge_(Barber_Field)_Airport"
  },
  {
    "id": "1936",
    "iata": "YVE",
    "icao": "CYVK",
    "name": "Vernon Regional Airport",
    "city": "Vernon",
    "country": "CA",
    "type": "medium_airport",
    "lat": 50.246163,
    "lon": -119.330963,
    "elevation": 1140,
    "wikipedia": "https://en.wikipedia.org/wiki/Vernon_Regional_Airport"
  },
  {
    "id": "1938",
    "iata": "YVO",
    "icao": "CYVO",
    "name": "Val-d'Or Airport",
    "city": "Val-d'Or",
    "country": "CA",
    "type": "medium_airport",
    "lat": 48.0532989502,
    "lon": -77.7827987671,
    "elevation": 1107,
    "wikipedia": "https://en.wikipedia.org/wiki/Val-d'Or_Airport"
  },
  {
    "id": "1939",
    "iata": "YVP",
    "icao": "CYVP",
    "name": "Kuujjuaq Airport",
    "city": "Kuujjuaq",
    "country": "CA",
    "type": "medium_airport",
    "lat": 58.096099853515625,
    "lon": -68.4269027709961,
    "elevation": 129,
    "wikipedia": "https://en.wikipedia.org/wiki/Kuujjuaq_Airport"
  },
  {
    "id": "1940",
    "iata": "YVQ",
    "icao": "CYVQ",
    "name": "Norman Wells Airport",
    "city": "Norman Wells",
    "country": "CA",
    "type": "medium_airport",
    "lat": 65.28160095214844,
    "lon": -126.7979965209961,
    "elevation": 238,
    "wikipedia": "https://en.wikipedia.org/wiki/Norman_Wells_Airport"
  },
  {
    "id": "1941",
    "iata": "YVR",
    "icao": "CYVR",
    "name": "Vancouver International Airport",
    "city": "Vancouver",
    "country": "CA",
    "type": "large_airport",
    "lat": 49.193901,
    "lon": -123.183998,
    "elevation": 14,
    "wikipedia": "https://en.wikipedia.org/wiki/Vancouver_International_Airport"
  },
  {
    "id": "1943",
    "iata": "YVV",
    "icao": "CYVV",
    "name": "Wiarton Airport",
    "city": "Wiarton",
    "country": "CA",
    "type": "medium_airport",
    "lat": 44.7458,
    "lon": -81.107201,
    "elevation": 729,
    "wikipedia": "https://en.wikipedia.org/wiki/Wiarton_Airport"
  },
  {
    "id": "1946",
    "iata": "YWG",
    "icao": "CYWG",
    "name": "Winnipeg / James Armstrong Richardson International Airport",
    "city": "Winnipeg",
    "country": "CA",
    "type": "large_airport",
    "lat": 49.909999847399995,
    "lon": -97.2398986816,
    "elevation": 783,
    "wikipedia": "https://en.wikipedia.org/wiki/Winnipeg_James_Armstrong_Richardson_International_Airport"
  },
  {
    "id": "1949",
    "iata": "YWK",
    "icao": "CYWK",
    "name": "Wabush Airport",
    "city": "Wabush",
    "country": "CA",
    "type": "medium_airport",
    "lat": 52.92190170288086,
    "lon": -66.8644027709961,
    "elevation": 1808,
    "wikipedia": "https://en.wikipedia.org/wiki/Wabush_Airport"
  },
  {
    "id": "1950",
    "iata": "YWL",
    "icao": "CYWL",
    "name": "Williams Lake Airport",
    "city": "Williams Lake",
    "country": "CA",
    "type": "medium_airport",
    "lat": 52.1831016541,
    "lon": -122.054000854,
    "elevation": 3085,
    "wikipedia": "https://en.wikipedia.org/wiki/Williams_Lake_Airport"
  },
  {
    "id": "1954",
    "iata": "YWY",
    "icao": "CYWY",
    "name": "Wrigley Airport",
    "city": "Wrigley",
    "country": "CA",
    "type": "medium_airport",
    "lat": 63.20940017700195,
    "lon": -123.43699645996094,
    "elevation": 489,
    "wikipedia": "https://en.wikipedia.org/wiki/Wrigley_Airport"
  },
  {
    "id": "1955",
    "iata": "YXC",
    "icao": "CYXC",
    "name": "Cranbrook/Canadian Rockies International Airport",
    "city": "Cranbrook",
    "country": "CA",
    "type": "medium_airport",
    "lat": 49.610802,
    "lon": -115.781998,
    "elevation": 3082,
    "wikipedia": "https://en.wikipedia.org/wiki/Cranbrook/Canadian_Rockies_International_Airport"
  },
  {
    "id": "1957",
    "iata": "YXE",
    "icao": "CYXE",
    "name": "Saskatoon John G. Diefenbaker International Airport",
    "city": "Saskatoon",
    "country": "CA",
    "type": "large_airport",
    "lat": 52.170723,
    "lon": -106.700793,
    "elevation": 1653,
    "wikipedia": "https://en.wikipedia.org/wiki/Saskatoon/John_G._Diefenbaker_International_Airport"
  },
  {
    "id": "1958",
    "iata": "YXH",
    "icao": "CYXH",
    "name": "Medicine Hat Regional Airport",
    "city": "Medicine Hat",
    "country": "CA",
    "type": "medium_airport",
    "lat": 50.018902,
    "lon": -110.721001,
    "elevation": 2352,
    "wikipedia": "https://en.wikipedia.org/wiki/Medicine_Hat_Airport"
  },
  {
    "id": "1959",
    "iata": "YXJ",
    "icao": "CYXJ",
    "name": "Fort St John / North Peace Regional Airport",
    "city": "Fort Saint John",
    "country": "CA",
    "type": "medium_airport",
    "lat": 56.238098,
    "lon": -120.739998,
    "elevation": 2280,
    "wikipedia": "https://en.wikipedia.org/wiki/Fort_St._John_Airport"
  },
  {
    "id": "1960",
    "iata": "YXK",
    "icao": "CYXK",
    "name": "Rimouski Airport",
    "city": "Rimouski",
    "country": "CA",
    "type": "medium_airport",
    "lat": 48.477644,
    "lon": -68.496323,
    "elevation": 82,
    "wikipedia": "https://en.wikipedia.org/wiki/Rimouski_Airport"
  },
  {
    "id": "1961",
    "iata": "YXL",
    "icao": "CYXL",
    "name": "Sioux Lookout Airport",
    "city": "Sioux Lookout",
    "country": "CA",
    "type": "medium_airport",
    "lat": 50.11389923095703,
    "lon": -91.9052963256836,
    "elevation": 1258,
    "wikipedia": "https://en.wikipedia.org/wiki/Sioux_Lookout_Airport"
  },
  {
    "id": "1964",
    "iata": "YXQ",
    "icao": "CYXQ",
    "name": "Beaver Creek Airport",
    "city": "Beaver Creek",
    "country": "CA",
    "type": "medium_airport",
    "lat": 62.410301208496094,
    "lon": -140.86700439453125,
    "elevation": 2131,
    "wikipedia": "https://en.wikipedia.org/wiki/Beaver_Creek_Airport"
  },
  {
    "id": "1965",
    "iata": "YXR",
    "icao": "CYXR",
    "name": "Earlton (Timiskaming Regional) Airport",
    "city": "Earlton",
    "country": "CA",
    "type": "medium_airport",
    "lat": 47.697400654599996,
    "lon": -79.8473453522,
    "elevation": 800,
    "wikipedia": "https://en.wikipedia.org/wiki/Earlton_(Timiskaming_Regional)_Airport"
  },
  {
    "id": "1966",
    "iata": "YXS",
    "icao": "CYXS",
    "name": "Prince George (International) Airport",
    "city": "Prince George",
    "country": "CA",
    "type": "medium_airport",
    "lat": 53.884311,
    "lon": -122.666554,
    "elevation": 2267,
    "wikipedia": "https://en.wikipedia.org/wiki/Prince_George_Airport"
  },
  {
    "id": "1967",
    "iata": "YXT",
    "icao": "CYXT",
    "name": "Northwest Regional Airport Terrace-Kitimat",
    "city": "Terrace",
    "country": "CA",
    "type": "medium_airport",
    "lat": 54.468498,
    "lon": -128.576009,
    "elevation": 713,
    "wikipedia": "https://en.wikipedia.org/wiki/Terrace_Airport"
  },
  {
    "id": "1968",
    "iata": "YXU",
    "icao": "CYXU",
    "name": "London International Airport",
    "city": "London",
    "country": "CA",
    "type": "medium_airport",
    "lat": 43.032845,
    "lon": -81.149003,
    "elevation": 912,
    "wikipedia": "https://en.wikipedia.org/wiki/London_International_Airport"
  },
  {
    "id": "1969",
    "iata": "YXX",
    "icao": "CYXX",
    "name": "Abbotsford International Airport",
    "city": "Abbotsford",
    "country": "CA",
    "type": "medium_airport",
    "lat": 49.025299,
    "lon": -122.361,
    "elevation": 195,
    "wikipedia": "https://en.wikipedia.org/wiki/Abbotsford_International_Airport"
  },
  {
    "id": "1970",
    "iata": "YXY",
    "icao": "CYXY",
    "name": "Whitehorse / Erik Nielsen International Airport",
    "city": "Whitehorse",
    "country": "CA",
    "type": "medium_airport",
    "lat": 60.708533,
    "lon": -135.065705,
    "elevation": 2317,
    "wikipedia": "https://en.wikipedia.org/wiki/Whitehorse_International_Airport"
  },
  {
    "id": "1971",
    "iata": "YXZ",
    "icao": "CYXZ",
    "name": "Wawa Airport",
    "city": "Wawa",
    "country": "CA",
    "type": "medium_airport",
    "lat": 47.96670150756836,
    "lon": -84.78669738769531,
    "elevation": 942,
    "wikipedia": "https://en.wikipedia.org/wiki/Wawa_Airport"
  },
  {
    "id": "1972",
    "iata": "YYB",
    "icao": "CYYB",
    "name": "North Bay Jack Garland Airport",
    "city": "North Bay",
    "country": "CA",
    "type": "medium_airport",
    "lat": 46.363602,
    "lon": -79.422798,
    "elevation": 1215,
    "wikipedia": "https://en.wikipedia.org/wiki/North_Bay/Jack_Garland_Airport"
  },
  {
    "id": "1973",
    "iata": "YYC",
    "icao": "CYYC",
    "name": "Calgary International Airport",
    "city": "Calgary",
    "country": "CA",
    "type": "large_airport",
    "lat": 51.118822,
    "lon": -114.009933,
    "elevation": 3557,
    "wikipedia": "https://en.wikipedia.org/wiki/Calgary_International_Airport"
  },
  {
    "id": "1974",
    "iata": "YYD",
    "icao": "CYYD",
    "name": "Smithers Airport",
    "city": "Smithers",
    "country": "CA",
    "type": "medium_airport",
    "lat": 54.82469940185547,
    "lon": -127.18299865722656,
    "elevation": 1712,
    "wikipedia": "https://en.wikipedia.org/wiki/Smithers_Airport"
  },
  {
    "id": "1975",
    "iata": "YYE",
    "icao": "CYYE",
    "name": "Fort Nelson Airport",
    "city": "Fort Nelson",
    "country": "CA",
    "type": "medium_airport",
    "lat": 58.8363990784,
    "lon": -122.597000122,
    "elevation": 1253,
    "wikipedia": "https://en.wikipedia.org/wiki/Fort_Nelson_Airport"
  },
  {
    "id": "1976",
    "iata": "YYF",
    "icao": "CYYF",
    "name": "Penticton Airport",
    "city": "Penticton",
    "country": "CA",
    "type": "medium_airport",
    "lat": 49.46310043334961,
    "lon": -119.60199737548828,
    "elevation": 1129,
    "wikipedia": "https://en.wikipedia.org/wiki/Penticton_Regional_Airport"
  },
  {
    "id": "1977",
    "iata": "YYG",
    "icao": "CYYG",
    "name": "Charlottetown Airport",
    "city": "Charlottetown",
    "country": "CA",
    "type": "medium_airport",
    "lat": 46.288911,
    "lon": -63.125174,
    "elevation": 160,
    "wikipedia": "https://en.wikipedia.org/wiki/Charlottetown_Airport"
  },
  {
    "id": "1979",
    "iata": "YYJ",
    "icao": "CYYJ",
    "name": "Victoria International Airport",
    "city": "Victoria",
    "country": "CA",
    "type": "large_airport",
    "lat": 48.647201,
    "lon": -123.427792,
    "elevation": 63,
    "wikipedia": "https://en.wikipedia.org/wiki/Victoria_International_Airport"
  },
  {
    "id": "1980",
    "iata": "YYL",
    "icao": "CYYL",
    "name": "Lynn Lake Airport",
    "city": "Lynn Lake",
    "country": "CA",
    "type": "medium_airport",
    "lat": 56.86389923095703,
    "lon": -101.07599639892578,
    "elevation": 1170,
    "wikipedia": "https://en.wikipedia.org/wiki/Lynn_Lake_Airport"
  },
  {
    "id": "1982",
    "iata": "YYN",
    "icao": "CYYN",
    "name": "Swift Current Airport",
    "city": "Swift Current",
    "country": "CA",
    "type": "medium_airport",
    "lat": 50.291900634799994,
    "lon": -107.691001892,
    "elevation": 2680,
    "wikipedia": "https://en.wikipedia.org/wiki/Swift_Current_Airport"
  },
  {
    "id": "1984",
    "iata": "YYQ",
    "icao": "CYYQ",
    "name": "Churchill Airport",
    "city": "Churchill",
    "country": "CA",
    "type": "medium_airport",
    "lat": 58.739200592041016,
    "lon": -94.06500244140625,
    "elevation": 94,
    "wikipedia": "https://en.wikipedia.org/wiki/Churchill_Airport"
  },
  {
    "id": "1985",
    "iata": "YYR",
    "icao": "CYYR",
    "name": "Goose Bay Airport",
    "city": "Goose Bay",
    "country": "CA",
    "type": "medium_airport",
    "lat": 53.3191986084,
    "lon": -60.4258003235,
    "elevation": 160,
    "wikipedia": "https://en.wikipedia.org/wiki/CFB_Goose_Bay"
  },
  {
    "id": "1986",
    "iata": "YYT",
    "icao": "CYYT",
    "name": "St. John's International Airport",
    "city": "St. John's",
    "country": "CA",
    "type": "large_airport",
    "lat": 47.618599,
    "lon": -52.7519,
    "elevation": 461,
    "wikipedia": "https://en.wikipedia.org/wiki/St._John's_International_Airport"
  },
  {
    "id": "1987",
    "iata": "YYU",
    "icao": "CYYU",
    "name": "Kapuskasing Airport",
    "city": "Kapuskasing",
    "country": "CA",
    "type": "medium_airport",
    "lat": 49.411587,
    "lon": -82.469645,
    "elevation": 743,
    "wikipedia": "https://en.wikipedia.org/wiki/Kapuskasing_Airport"
  },
  {
    "id": "1988",
    "iata": "YYW",
    "icao": "CYYW",
    "name": "Armstrong Airport",
    "city": "Armstrong",
    "country": "CA",
    "type": "medium_airport",
    "lat": 50.29029846191406,
    "lon": -88.90969848632812,
    "elevation": 1058,
    "wikipedia": "https://en.wikipedia.org/wiki/Armstrong_Airport"
  },
  {
    "id": "1989",
    "iata": "YYY",
    "icao": "CYYY",
    "name": "Mont Joli Airport",
    "city": "Mont-Joli",
    "country": "CA",
    "type": "medium_airport",
    "lat": 48.60860061645508,
    "lon": -68.20809936523438,
    "elevation": 172,
    "wikipedia": "https://en.wikipedia.org/wiki/Mont-Joli_Airport"
  },
  {
    "id": "1990",
    "iata": "YYZ",
    "icao": "CYYZ",
    "name": "Toronto Pearson International Airport",
    "city": "Toronto",
    "country": "CA",
    "type": "large_airport",
    "lat": 43.675935,
    "lon": -79.629421,
    "elevation": 569,
    "wikipedia": "https://en.wikipedia.org/wiki/Toronto_Pearson_International_Airport"
  },
  {
    "id": "1992",
    "iata": "YZE",
    "icao": "CYZE",
    "name": "Gore Bay Manitoulin Airport",
    "city": "Gore Bay",
    "country": "CA",
    "type": "medium_airport",
    "lat": 45.8853,
    "lon": -82.567802,
    "elevation": 623,
    "wikipedia": "https://en.wikipedia.org/wiki/Gore_Bay-Manitoulin_Airport"
  },
  {
    "id": "1993",
    "iata": "YZF",
    "icao": "CYZF",
    "name": "Yellowknife International Airport",
    "city": "Yellowknife",
    "country": "CA",
    "type": "medium_airport",
    "lat": 62.462799,
    "lon": -114.440002,
    "elevation": 675,
    "wikipedia": "https://en.wikipedia.org/wiki/Yellowknife_Airport"
  },
  {
    "id": "1995",
    "iata": "YZH",
    "icao": "CYZH",
    "name": "Slave Lake Airport",
    "city": "Slave Lake",
    "country": "CA",
    "type": "medium_airport",
    "lat": 55.292945,
    "lon": -114.777276,
    "elevation": 1912,
    "wikipedia": "https://en.wikipedia.org/wiki/Slave_Lake_Airport"
  },
  {
    "id": "1996",
    "iata": "YZP",
    "icao": "CYZP",
    "name": "Sandspit Airport",
    "city": "Sandspit",
    "country": "CA",
    "type": "medium_airport",
    "lat": 53.25429916379999,
    "lon": -131.813995361,
    "elevation": 21,
    "wikipedia": "https://en.wikipedia.org/wiki/Sandspit_Airport"
  },
  {
    "id": "1997",
    "iata": "YZR",
    "icao": "CYZR",
    "name": "Chris Hadfield Airport",
    "city": "Sarnia",
    "country": "CA",
    "type": "medium_airport",
    "lat": 42.999401,
    "lon": -82.308899,
    "elevation": 594,
    "wikipedia": "https://en.wikipedia.org/wiki/Sarnia_(Chris_Hadfield)_Airport"
  },
  {
    "id": "1998",
    "iata": "YZS",
    "icao": "CYZS",
    "name": "Coral Harbour Airport",
    "city": "Coral Harbour",
    "country": "CA",
    "type": "medium_airport",
    "lat": 64.1932983398,
    "lon": -83.3593978882,
    "elevation": 210,
    "wikipedia": "https://en.wikipedia.org/wiki/Coral_Harbour_Airport"
  },
  {
    "id": "1999",
    "iata": "YZT",
    "icao": "CYZT",
    "name": "Port Hardy Airport",
    "city": "Port Hardy",
    "country": "CA",
    "type": "medium_airport",
    "lat": 50.680599212646484,
    "lon": -127.36699676513672,
    "elevation": 71,
    "wikipedia": "https://en.wikipedia.org/wiki/Port_Hardy_Airport"
  },
  {
    "id": "2000",
    "iata": "YZU",
    "icao": "CYZU",
    "name": "Whitecourt Airport",
    "city": "Whitecourt",
    "country": "CA",
    "type": "medium_airport",
    "lat": 54.143902,
    "lon": -115.787003,
    "elevation": 2567,
    "wikipedia": "https://en.wikipedia.org/wiki/Whitecourt_Airport"
  },
  {
    "id": "2001",
    "iata": "YZV",
    "icao": "CYZV",
    "name": "Sept-Îles Airport",
    "city": "Sept-Îles",
    "country": "CA",
    "type": "medium_airport",
    "lat": 50.22330093383789,
    "lon": -66.2656021118164,
    "elevation": 180,
    "wikipedia": "https://en.wikipedia.org/wiki/Sept-%C3%8Eles_Airport"
  },
  {
    "id": "2002",
    "iata": "YZW",
    "icao": "CYZW",
    "name": "Teslin Airport",
    "city": "Teslin",
    "country": "CA",
    "type": "medium_airport",
    "lat": 60.17279815673828,
    "lon": -132.7429962158203,
    "elevation": 2313,
    "wikipedia": "https://en.wikipedia.org/wiki/Teslin_Airport"
  },
  {
    "id": "2003",
    "iata": "YZX",
    "icao": "CYZX",
    "name": "CFB Greenwood",
    "city": "Greenwood",
    "country": "CA",
    "type": "medium_airport",
    "lat": 44.98440170288086,
    "lon": -64.91690063476562,
    "elevation": 92,
    "wikipedia": "https://en.wikipedia.org/wiki/CFB_Greenwood"
  },
  {
    "id": "2006",
    "iata": "YSN",
    "icao": "CZAM",
    "name": "Shuswap Regional Airport",
    "city": "Salmon Arm",
    "country": "CA",
    "type": "medium_airport",
    "lat": 50.682802,
    "lon": -119.228996,
    "elevation": 1751,
    "wikipedia": "https://en.wikipedia.org/wiki/Salmon_Arm_Airport"
  },
  {
    "id": "2008",
    "iata": "YDT",
    "icao": "CZBB",
    "name": "Boundary Bay Airport",
    "city": "Delta",
    "country": "CA",
    "type": "medium_airport",
    "lat": 49.074338,
    "lon": -123.006877,
    "elevation": 6,
    "wikipedia": "https://en.wikipedia.org/wiki/Boundary_Bay_Airport"
  },
  {
    "id": "2010",
    "iata": "ZBF",
    "icao": "CZBF",
    "name": "Bathurst Airport",
    "city": "South Tetagouche",
    "country": "CA",
    "type": "medium_airport",
    "lat": 47.6297,
    "lon": -65.738899,
    "elevation": 193,
    "wikipedia": "https://en.wikipedia.org/wiki/Bathurst_Airport_(New_Brunswick)"
  },
  {
    "id": "2011",
    "iata": "ZBM",
    "icao": "CZBM",
    "name": "Bromont (Roland Désourdy) Airport",
    "city": "Bromont",
    "country": "CA",
    "type": "medium_airport",
    "lat": 45.290798,
    "lon": -72.741402,
    "elevation": 375,
    "wikipedia": "https://en.wikipedia.org/wiki/Roland-D%C3%A9sourdy_Airport"
  },
  {
    "id": "2012",
    "iata": "KES",
    "icao": "CZEE",
    "name": "Kelsey Airport",
    "city": "Kelsey",
    "country": "CA",
    "type": "medium_airport",
    "lat": 56.0374984741,
    "lon": -96.50969696039999,
    "elevation": 600,
    "wikipedia": "https://en.wikipedia.org/wiki/Kelsey_Airport"
  },
  {
    "id": "2014",
    "iata": "ZFA",
    "icao": "CZFA",
    "name": "Faro Airport",
    "city": "Faro",
    "country": "CA",
    "type": "medium_airport",
    "lat": 62.20750045776367,
    "lon": -133.37600708007812,
    "elevation": 2351,
    "wikipedia": "https://en.wikipedia.org/wiki/Faro_Airport_(Yukon)"
  },
  {
    "id": "2019",
    "iata": "ZGF",
    "icao": "CZGF",
    "name": "Grand Forks Airport",
    "city": "Grand Forks",
    "country": "CA",
    "type": "medium_airport",
    "lat": 49.015598,
    "lon": -118.431,
    "elevation": 1720,
    "wikipedia": "https://en.wikipedia.org/wiki/Grand_Forks_Airport"
  },
  {
    "id": "2023",
    "iata": "ZJG",
    "icao": "CZJG",
    "name": "Jenpeg Airport",
    "city": "Jenpeg",
    "country": "CA",
    "type": "medium_airport",
    "lat": 54.51890182495117,
    "lon": -98.04609680175781,
    "elevation": 729,
    "wikipedia": "https://en.wikipedia.org/wiki/Jenpeg_Airport"
  },
  {
    "id": "2024",
    "iata": "ZJN",
    "icao": "CZJN",
    "name": "Swan River Airport",
    "city": "Swan River",
    "country": "CA",
    "type": "medium_airport",
    "lat": 52.120602,
    "lon": -101.236,
    "elevation": 1100,
    "wikipedia": "https://en.wikipedia.org/wiki/Swan_River_Airport"
  },
  {
    "id": "2026",
    "iata": "YTD",
    "icao": "CZLQ",
    "name": "Thicket Portage Airport",
    "city": "Thicket Portage",
    "country": "CA",
    "type": "medium_airport",
    "lat": 55.31890106201172,
    "lon": -97.70780181884766,
    "elevation": 678,
    "wikipedia": "https://en.wikipedia.org/wiki/Thicket_Portage_Airport"
  },